id,name,description,lat,lng,image_path,genre_id,city_id,reference_url
1,熊沼,八幡平市にある熊沼は八幡平アスピーテラインから八幡平山頂に向かう途中に谷間から見下ろすことができ、紅葉シーズンは非常に見応えのある景色になっている。,39.9479534,140.8933448,/images/spots/Hachimantai_Nature_Kumanuma.jpg,1,18,https://8tabi.style/spots/oHrVqZdCyDZftHlB13MSsWI9y
2,県民の森,岩手山（標高2038メートル）の北側にあり、比較的なだらかな斜面一帯約360ヘクタールを区域とする森林公園。園内には、キャンプ場、みんなの広場、遊歩道、木材工芸センター、そして平成16年に開館した森林ふれあい学習館フォレストI（アイ）などの施設があり、木工教室や自然観察会などが定期行事として開催されている。,39.89384837,140.9645794,/images/spots/Hachimantai_Nature_KenminNoMori.jpg,1,18,http://kenminnomori.com/
3,雪の回廊,日本最長!約6~10メートルの高さの雪の壁が連なる絶景ドライブスポット。4月中旬から5月下旬にかけて開通している。,36.65658547,138.5297699,/images/spots/Hachimantai_Nature_SnowCorridor.jpg,1,18,https://visit-hachimantai.jp/tourist_attraction/four-seasons-of-hachimantai/snow-corridor/
4,藤七温泉,藤七温泉（とうしちおんせん）は、岩手と秋田の県境に位置する東北地方で最も高所にある温泉。源泉掛け流しの天然温泉や泥パックが特徴。冬季はアクセスできないため基本５〜１０月の営業となっている。,39.94191833,140.8612322,/images/spots/Hachimantai_Resort_ToushichiOnsen.jpg,3,18,https://www.toshichi.com/
5,森乃湯,木造建築の森乃湯は、硫黄泉と古くからある小規模のサウナが特徴的。八幡平リゾートスキー場から1分でアクセス可能でウィンタースポーツの後にぴったり。,39.89791116,140.9739237,/images/spots/Hachimantai_Resort_Morinoyu.jpg,3,18,https://www.hachimantai-ss.co.jp/morinoyu/
6,松川温泉,秘湯・松川温泉峡雲荘は、原生林に囲まれた森の中の温泉で源泉かけながしの宿。露天風呂や、地産の食材をいかした山菜料理などを堪能できる。,39.87458651,140.926142,/images/spots/Hachimantai_Resort_MatsukawaOnsen.jpg,3,18,"https://matsukawasou.com/ , https://www.kyounso.jp/"
7,平笠裸祭り,裸参りは、無病息災、家内安全、五穀豊穣を祈願する行事で、古くから男性が行っていたが、主婦たちが太平洋戦争中に出征した夫や息子の武運長久を祈るために始めたのが現在まで残っている。全国的にも例のない女性の荒行として知られている。,39.90814049,141.0644807,/images/spots/Hachimantai_Resort_HiraginoNakedFestival.jpg,4,18,https://iwatetabi.jp/events/8383/
8,八幡平山賊祭り,八幡平の大自然に囲まれたさくら公園イベント広場で八幡平山賊まつりは行われます。開催期間中は、宮古市田老町から海の幸を、友好都市名護市からは、沖縄の特産品を販売。,39.92136917,140.9753667,/images/spots/Hachimantai_Activity_SanzokuFestival.jpg,4,18,https://iwatetabi.jp/events/8366/
9,平庭高原の白樺林,日本一の白樺美林と呼ばれる場所。久慈市と葛巻町にまたがり、その範囲は369ヘクタール、国道沿い約4.5㎞に及び、31万本以上の白樺が群生する。,40.07982062,141.5090033,/images/spots/Kuzumaki_Nature_HiraniwaShirakaba.jpg,1,19,https://www.grand-seiko.com/jp-ja/worldofgrandseiko/sustainability/iwate/vol1/index
10,袖山高原,"標高1,200mの雄大な自然の中に広がる袖山高原牧場は、晴れた日には岩手山・姫神山・早池峰山・三陸海岸も見渡すことができる。牧場は5月下旬開牧、10月31日で閉牧。",40.02999578,141.5376266,/images/spots/Kuzumaki_Nature_SodeyamaKougen.jpg,1,19,https://kuzumaki.jp/?post_type=map&p=2550
11,パンハウスくずまき,県内産の小麦や雑穀、そしてくずまき高原牛乳を使った完全無添加の高原パンを製造販売している。牧場産の牛乳・ヨーグルト・ソフトクリーム・チーズ・精肉等の販売や、くずまき高原牧場オリジナルグッズ、くずまきワインなども販売している。,40.00236672,141.3321822,/images/spots/Kuzumaki_Food_PanhouseKuzumaki.jpg,1,19,https://kuzumaki.jp/?post_type=food&p=1983
12,チーズハウスくずまき,牧場でとれたての新鮮な生乳を使い、熟練の手によって作られたモッツァレラチーズ・クリームチーズなどのフレッシュタイプやセミハードタイプのゴーダチーズなどのナチュラルチーズを製造外から、工場見学できる。,40.00459103,141.3343154,/images/spots/Kuzumaki_Food_CheeseHouseKuzumaki.jpg,1,19,https://kuzumaki.jp/?post_type=map&p=2356
13,ワイナリー((株)岩手くずまきワイン),高橋吟太郎町長が、山ぶどうを使ったワインを町の新しい産業にして、地域の活性化に結び付けられないかと考えたことが、くずまきワインの始まり。ワイン工場を見学できる。,40.09259488,141.520379,/images/spots/Kuzumaki_Food_IwateWineKuzumaki.jpg,1,19,https://www.kuzumakiwine.co.jp/
14,ひぼがはっと,葛巻町産の肉や野菜、乳製品、赤ワインなど豊富な特産品を活かし、町内産平打ち麺「ひぼがはっと」を入れた一人前の鍋は、町内飲食店の各シェフが工夫を凝らし、冬はあたたかい鍋、夏は冷やし鍋を南部鉄器の鍋に入れて提供される。,39.99058561,141.340828,/images/spots/Kuzumaki_Food_Hibogahatto.jpg,5,19,https://iwatetabi.jp/spots/66632/
15,石神の丘美術館,国内でも数少ない彫刻の美術館。芸術鑑賞をしながら気軽にピクニックが楽しめる屋外展示に加え、企画展示が楽しめるギャラリー、見るだけではなく作ることによって美術を体験できる工房などを楽しめる。,39.96843008,141.2141873,/images/spots/Iwatemachi_History_IshigamiNoOkaArtMuseum.jpg,1,20,https://ishigami-iwate.jp/
16,弓弭の泉,義家が大杉の根元を「弓弭」で掘って湧き出た清水は「弓弭の泉」として人々からあがめられ、今も涸れることなく御堂観音の地に静かに湧き出で、北上川の源として悠久の北上の流れとなっています。,40.03928058,141.2429903,/images/spots/Iwatemachi_History_YuhazunoIzumi.jpg,1,20,https://town.iwate.iwate.jp/town/accessmap/yuhazunoizumi/
17,道の駅・石神の丘,国内でも数少ない彫刻の美術館と美食レストランが併設された道の駅。ドライブの休憩に立ち寄ってみてはいかが。,39.96902104,141.2136828,/images/spots/Iwatecho_History_IshigamiNoOkaBijutsukan.jpg,2,20,https://isigaminooka.jp/
18,御堂観音,御堂観音（北上山新通法寺正覚院）は、坂上田村麻呂に祈願所として建立され、その一族の僧、了慶が院として開いた。本堂の千手観音像は南部氏がここを領地にした際、守り本尊として当院に寄進し、今日に及んでいる。また境内には北上川の源泉（ゆはずの泉）がある。,40.03924248,141.2427723,/images/spots/Iwatecho_History_Gokokuji.jpg,2,20,https://iwatetabi.jp/spots/4982/
19,奈良屋(いわてまち焼きうどん),岩手町では焼きうどんがおすすめ!奈良屋では本格的な焼きうどんが楽しめる。,39.97046304,141.2223642,/images/spots/Iwatemachi_Food_Naraya.jpg,5,20,https://tabelog.com/iwate/A0305/A030503/3003671/
20,ひまわり畑と岩手山,こちらのひまわり畑は夏に訪れるのがおすすめ。たくさんのひまわりに囲まれながら、遠くに岩手山を眺望できる。(※URLは矢巾町のものです。),39.69043202,141.1064816,/images/spots/Morioka_Nature_Himawaribatake.jpg,1,21,https://iwatetabi.jp/spots/5545/
21,四十四田ダム,四十四田ダム（しじゅうしダム）は、北上川5ダムの一つ。地形や水質の条件など悪条件が重なった中特殊工法を採用して作られた土木学会選奨土木遺産にも選ばれているハイテクのダム。また、東北地方最大の河川である北上川本流に建設された唯一のダムでもある。,39.75290334,141.1486224,/images/spots/Morioka_Nature_ShijuusidaDam.jpg,1,21,https://www.thr.mlit.go.jp/kitakato/01dam/44_outline.html
22,岩洞湖,岩洞湖（がんどうこ）は、日本一美しい人造湖と言われている。冬になると氷上ワカサギ釣りが楽しめる。,39.8133676,141.3520884,/images/spots/Morioka_Nature_GandouLake.jpg,1,21,https://iwatetabi.jp/spots/5681/
23,啄木望郷の丘,啄木夫妻の鎮魂のために郷土の山河を望む岩山山頂「啄木望郷の丘」には「啄木望郷の像」が建立されている。像はふるさとの姫神山に向い、啄木が最も愛した「岩手山 秋はふもとの三方の 野に満つる蟲を何と聴くらむ」の望郷歌の一首が刻まれている。,39.70320969,141.1670631,/images/spots/Morioka_Nature_TakubokuOka.jpg,1,21,https://iwatetabi.jp/spots/5350/
24,北上川公園,県北の水源から宮城県北上町追波湾まで、総延長２５０ｋｍ。全国５位の大河。岩手の母なる川である。この北上川と秀麗な岩手山は、盛岡を代表する景観の一つ。開運橋、旭橋、夕顔瀬橋などがビューポイントで、色とりどりの花が岸辺を彩る。,39.69799326,141.1421419,/images/spots/Morioka_Nature_Kitakamigawakouen.jpg,1,21,https://iwatetabi.jp/spots/4953/
25,石割桜,盛岡地方裁判所敷地内にある石割桜は、樹齢350~400年。周囲21メートルもある花崗岩の割れ目から突き出た樹高は11メートルほどで、1923年(大正12年)に国の天然記念物になっている,39.70393895,141.1511894,/images/spots/Morioka_Nature_IshiwariZakura.jpg,1,21,"https://www.city.morioka.iwate.jp/kankou/kankou/1037103/1037212/sakura/1007959.html , https://iwatetabi.jp/spots/5440/"
26,東北農業研究センター菜の花,東北農業研究センターでは、試験圃場の連作障害防止や緑肥を目的に毎年菜の花を作付しており、毎年5月上旬~中旬に残雪の岩手山を背景に畑一面の菜の花を楽しめる。,39.74599837,141.1336791,/images/spots/Morioka_Nature_Nanohana.jpg,1,21,https://iwatetabi.jp/events/8912/
27,御所湖,雫石川をせきとめて作ったダム湖。湖畔にはスポーツ施設、水生植物園、南部曲り家などがあり気軽にレジャーが楽しめる。繋大橋のたもとには舟越保武氏作の「シオン」の像が立っている。また、盛岡市内から御所湖へ向かう県道盛岡鶯宿線沿いにコスモス畑があり、道路に寄りそうように作られた広さ約500坪の土地にはオレンジの花が咲くサンセット、ピンクや白花のセンセーションが植えられている。背後には岩手山と銀色に光る御所湖、そして御所大橋が望める絶好のロケーション。,39.6747164,141.0073221,/images/spots/Morioka_Nature_Goshoko.jpg,1,21,https://www.koiwai.co.jp/shiteikanri/gosyo_park/index.html
28,外山牧場,外山牧場は、明治時代に宮内庁が所有していた牧場跡地。現在は、岩手県農業研究センターの外山畜産研究室として利用されている。,39.78657635,141.3046988,/images/spots/Morioka_Nature_SotoyamaFarm.jpg,1,21,https://pioneer-iwate.com/about/
29,米内浄水場のしだれ桜群,場内には約３０本のヤエベニシダレが県指定保存樹木として手厚く保護されており、咲き誇る姿はまさに豪華絢爛、存在感のある浄水場の赤レンガの建物も桜に花を添える。,39.74608951,141.2026758,/images/spots/Morioka_Nature_YonaiShidarezakura.jpg,1,21,https://www.morioka-water.jp/various/yonai_sakura.html
30,高松の池,「日本さくらの名所100選」に選ばれた。 毎年、4月下旬から5月初旬にかけての桜のシーズンには「さくらまつり」が開催され、池周辺は数多くの花見客でにぎわう。また、冬は多くの白鳥の飛来地として有名。昭和59年から白鳥が飛来し始め，現在では1月のピーク時で200羽を超える白鳥が飛来する。,39.72297633,141.1445864,/images/spots/Morioka_Nature_Takamatsunoike.jpg,1,21,http://www.takamatu-kouen.com/
31,盛岡城跡公園,江戸時代、南部藩の城下町として栄えた南部盛岡の不来方城を公園として今に至っている。関東以北の石垣組の平城としては、最大の規模を誇っている。公園の中には、石川啄木がよんだ歌碑がある。,39.70075605,141.1515579,/images/spots/Morioka_Nature_MoriokajousiKouen.jpg,1,21,http://www.moriokashiroato.jp/
32,盛岡市中央公民館,盛岡市中央公民館にある庭園は第4代盛岡藩主・南部重信（しげのぶ）の治世の寛文9年（1669年）に城中で用いる薬草の栽培に始められ、「御薬園（おやくえん）」と呼ばれていた。現在は紅葉の名所として多くの観光客でにぎわう。,39.71075569,141.1620781,/images/spots/Morioka_Nature_ChuoKouminkan.jpg,1,21,"https://iwatetabi.jp/spots/70129/ , https://www.city.morioka.iwate.jp/kurashi/shiminkatsudo/kominkan/chuo/index.html"
33,開運橋,開運橋は、岩手県盛岡市にある北上川にかかる橋で、盛岡の観光名所。橋のたもとには、四季折々の花が咲き誇る開運橋花壇があり、その景観は盛岡のシンボルとして親しまれている。また、夜にはライトアップも実施され、美しい夜景を楽しむこともできる。,39.70267994,141.1399844,/images/spots/Morioka_Nature_Kaiunbashi.jpg,1,21,"https://magazine.air-u.kyoto-art.ac.jp/fushinjo/2568/ , https://www.city.morioka.iwate.jp/kankou/kankou/1037103/1007931.html"
34,岩手山,岩手山は奥羽山脈北部にある成層火山。北東山腹の焼走り溶岩流は国指定特別天然記念物となっている。さらに、山体は形成時期の異なる火山の集合体とされ、形成時期による植生の違い、多様な地形に起因する特徴的な植生分布が認められる。山頂一帯と北東山腹の一部はコマクサ群生地で、岩手山高山植物帯として特別天然記念物指定を受けている。,39.85321337,141.0012106,/images/spots/Morioka_Nature_Iwatesan.jpg,1,21,https://www.data.jma.go.jp/vois/data/sendai/207_Iwatesan/207_index.html
35,マリオス展望台,盛岡の中心地にある県内最も高い建築物である高層ビル「マリオス」から盛岡を一望できるマリオス展望台は、盛岡駅からのアクセスも非常によく、四季折々の盛岡の風景を360度一望することができる。,39.70174216,141.1340849,/images/spots/Morioka_Nature_Marios.jpg,1,21,http://www.malios.co.jp/
36,岩山展望台,市街地の東、標高340.5mの岩山山頂から、市内一円や岩手山を中心とした山並み、北上川の流れが見渡せる。デートスポットとして人気。,39.70106872,141.1834082,/images/spots/Morioka_Nature_Iwayama.jpg,1,21,https://iwatetabi.jp/spots/5455/
37,志波城,志波城跡は坂上田村麻呂が築いた古代城柵跡で、全長252mの堀をはじめとして幾つかの城跡が復元されている国指定史跡。,39.68660794,141.1064301,/images/spots/Morioka_Nature_ShibaJou.jpg,2,21,https://www.city.morioka.iwate.jp/shisetsu/bunka/kinenkan/1006834.html
38,報恩寺,岩手県盛岡市名須川町にある曹洞宗の寺院。山号は「瑞鳩峰山」と号し報恩禅寺と称する。本尊は釈迦如来。境内にある五百羅漢で有名である。大光山聖壽禪寺、大寶山東禪寺、寶珠盛岡山永福寺、雍護山無量院敎淨寺とともに盛岡五山（盛岡五個寺ともいう）の一つとされる。,39.72813838,141.1936811,/images/spots/Morioka_History_Ho-onji.jpg,2,21,http://www.city.morioka.iwate.jp/shisei/moriokagaido/rekishi/1009335/1009358/1009360.html
39,石川啄木記念館,近代日本を代表する歌人の一人である石川啄木の故郷である渋民に、啄木の顕彰と資料収集、保存、情報提供を目的として1970年に開館。,39.84741793,141.1747012,/images/spots/Morioka_History_TakubokuKinenkan.jpg,2,21,http://www.mfca.jp/takuboku/
40,茣蓙九・森九商店,竹細工の日用品を扱う雑貨店。平屋の日本家屋は盛岡市の保存建造物に指定されており、NHK連続テレビ小説「どんど晴れ」のロケ地にも採用されている。,39.70175129,141.1559841,/images/spots/Morioka_History_GozakyuShop.jpg,2,21,"https://morioka539.com/ , https://www.city.morioka.iwate.jp/kankou/kankou/1037106/rekishi/1009379/1009392.html"
41,原敬生家,原敬記念館に隣接して、かや葺屋根の木造平屋建一部2階建の住宅である。原敬祖父時代、当時の住宅間取りに不便を感じ、改築されたものの規模の約5分の1が現存してある。,39.68714652,141.1290528,/images/spots/Morioka_History_HaraTakeshi.jpg,2,21,http://www.city.morioka.iwate.jp/shisei/moriokagaido/rekishi/1009379/1009391.html
42,渋民公園（第1号啄木歌碑）,石川啄木記念館前の国道4号を横断した北上川のほとりに広がる渋民公園。ここには1922（大正11）年4月13日に建てられた第1号啄木歌碑があり、“やはらかに柳あをめる北上の岸邊目に見ゆ泣けとごとくに” と刻まれている。　公園内の啄木の駅では、喫茶店や地元主婦による手作りケーキや啄木グッズ、産直野菜も販売している。,39.84828488,141.1665192,/images/spots/Morioka_History_ShibutamiPark.jpg,2,21,https://iwatetabi.jp/spots/5696/
43,旧盛岡高等農林学校,国で最初の高騰農林学校の本館。青森ヒバを用いた明治後期を代表する木造二階建ての欧風建築物。昭和52年(1977)同窓生等の寄金により改修が行われ，農業教育資料館として使用されている。,39.71364498,141.1388835,/images/spots/Morioka_History_KyuMoriokaKoukouNouringakko.jpg,2,21,http://news7a1.atm.iwate-u.ac.jp/edu/
44,岩手銀行赤レンガ館,1911 年に辰野金吾設計で銀行として建てられた赤レンガの建物。現在は、展示や舞台芸術などのイベントが催される。,39.70075063,141.1552469,/images/spots/Morioka_History_IwaginAkarengakan.jpg,2,21,https://www.iwagin-akarengakan.jp/
45,上の橋,上の橋は南部藩主利直公が盛岡城を築くと同時に中津川に架けた橋。欄干を飾る青銅製の擬宝珠のうち、慶長14年（1609）の銘が刻まれているものが8個、慶長16年（1611）の銘が刻まれているものが10個ある。これほど多数残っているのは大変珍しく、昭和20年、国の重要美術品に指定された。,39.70524473,141.1565445,/images/spots/Morioka_History_KaminoHashi.jpg,2,21,https://iwatetabi.jp/spots/4863/
46,狛犬の歌碑,独特の顔をした狛犬さまが｢阿吽(あうん)の呼吸｣で啄木の歌碑の上に鎮座している。,39.70285299,141.1673918,/images/spots/Morioka_History_KomainunoKahi.jpg,2,21,https://www.tohokukanko.jp/attractions/detail_1003764.html
47,盛岡天満宮,御祭神である菅原道真公は、学問だけでなく、総合的な福徳の神様としても信仰されている。商売繁盛、家内安全、病気平癒など、幅広い願い事に対してのご利益があるとされている。,39.76421348,141.433236,/images/spots/Morioka_History_Nadeushi.jpg,2,21,https://moriokatenmangu.com/
48,啄木新婚の家,石川啄木が堀合節子との新婚生活を始めた家。随筆「我が四畳半」に新婚当時の様子が書かれている。,39.70643874,141.1417287,/images/spots/Morioka_History_TakubokuShinkonHouse.jpg,2,21,http://www.city.morioka.iwate.jp/shisetsu/kotsu/kanko/1006984.html
49,もりおか啄木・賢治青春館,1910 年に建てられた銀行の本店本館を利用し、盛岡で青春時代を過ごした偉人、石川啄木と宮沢賢治に関する展示を行うミュージアム。,39.69966974,141.1547408,/images/spots/Morioka_History_MoriokaTakubokuKenjiKan.jpg,2,21,https://seishunkan.jp/
50,岩手県立美術館,特徴は、萬鐵五郎、松本竣介、舟越保武ら、郷土の美術家たちの作品群を中心としたコレクション。幅広い年齢層の方々を対象としたイベントなども積極的に展開している。,39.69340067,141.1246699,/images/spots/Morioka_History_IwatePrefecturalArtMuseum.jpg,2,21,https://www.ima.or.jp/
51,岩手県立博物館,岩手県の県制百年を記念して昭和55年（1980年）10月に開館した総合博物館。地質時代から現代にいたる地質・考古・歴史・民俗・生物などの資料が展示され、岩手県の自然と文化が理解できるようになっている。,39.75562325,141.1544366,/images/spots/Morioka_History_IwatePrefecturalMuseum.jpg,2,21,https://www2.pref.iwate.jp/~hp0910/
53,櫻山神社,神殿が鎮座する盛岡城内淡路丸は、櫻が繁り、櫻山と呼ばれていたことから、やがて「櫻山大明神」と改称された。盛岡城の往時を偲ばせる、雄大な石垣と鳥帽子岩は、盛岡城築城時と変わることなく悠然と聳え立っている。,39.70174494,141.1519895,/images/spots/Morioka_History_SakurayamaJinja.jpg,2,21,https://www.sakurayamajinja.jp/
54,岩手県公会堂,創建当時から現在に至るまで、講演会や演奏会等の会場として利用されている。創建当時の客席は、移動式の長椅子であったので、ダンスパーティーや美術展も開催されていた。現在は個別の椅子となり、1・2階合わせて839の座席数がある。,39.70308375,141.1535011,/images/spots/Morioka_History_IwateKokaiDo.jpg,2,21,http://iwate-kokaido.jp/
55,岩手大学図書館アザリアギャラリー,盛岡高等農林学校時代に図書室として使われていた建物で、宮澤賢治も在学中に生物学・鉱物学・文学・芸術などの学問を吸収した現場でもある。ここでは、これまで100年間に大学が取り組んできた家畜疾病利水、環境対策（工学部）など地域へ貢献した研究業績の紹介や縄文時代、胆沢城、徳丹城、志波城などに関する考古資料（人文社会科学部・教育学部）などを展示・公開している（常設展示室）。,39.71264923,141.1406321,/images/spots/Morioka_History_IwateUniversityLibraryAzaliaGallery.jpg,2,21,https://iwatetabi.jp/spots/5211/
56,盛岡市先人記念館,郷土の豊かな精神文化の礎を築いた130人の優れた先人を顕彰し、遺徳を偲び、それぞれの偉大な人間形成の過程を学べる。多くの人材を輩出した盛岡を広く紹介するために設立された。,39.69403933,141.1268128,/images/spots/Morioka_History_MoriokaSenjinKinenkan.jpg,2,21,http://www.mfca.jp/senjin/
57,ユートランド姫神,岩手県盛岡市の北部の旧玉山村に位置し、東に姫神山、西に岩手山を一望できる美肌の湯、地元の新鮮な農産物が手に入る産直コーナー、旅行や合宿のできる研修・宿泊機能を完備。豊かな自然のなかでのBBQなどゆったりと交流・体験のできる多目的施設。,39.85972735,141.1129193,/images/spots/Morioka_Resort_YutolandHimekami.jpg,3,21,http://yutoland-himekami.com/
58,つなぎ温泉,盛岡つなぎ温泉は、岩手県盛岡市にある温泉。岩手山を望む御所湖の畔に位置しており、「盛岡の奥座敷」とも呼ばれている。 歴史的には「つなぎ温泉」と称されてきたが、知名度向上のため2023年4月1日に「盛岡つなぎ温泉」に名称変更した。,39.67968833,141.0255361,/images/spots/Morioka_Resort_TsunagiOnsen.jpg,3,21,"https://www.tsunagionsen.com/ , http://www.hotel-shion.com/"
59,つなぎ足湯,「盛岡つなぎ温泉街」には3つの足湯スポットがある。「ねこいし足湯専用駐車場」に無料で駐車でき、車を停めたら温泉街を歩きながら足湯スポットめぐりを楽しめる。,39.67510488,141.0237761,/images/spots/Morioka_Resort_TsunagiAshiyu.jpg,3,21,https://tsunagionsen.com/
60,盛岡花火の祭典,市内都南大橋下流の北上川河川敷で開かれる盛岡地区で一番大きな花火大会。 全国の花火師の競演もあり、連発花火、仕掛け花火など趣向をこらした大小合わせて数千発の花火が夜空に舞う。,39.65920643,141.1712925,/images/spots/Morioka_Activity_MoriokaHanabi.jpg,4,21,https://www.ccimorioka.or.jp/hanabi/
61,岩洞湖まつり,年に1回行われる岩洞湖まつりでは、神楽の披露、絶叫大会、丸太切り大会のほか、薮川そばや短角牛丸焼き等多数出店し、地元ならではの食べ物を楽しむことができる。2024年度は大雨のため中止になってしまった。,39.82768004,141.3458626,/images/spots/Morioka_Activity_GandouLakeFestival.jpg,4,21,https://iwatetabi.jp/events/8442/
62,北上川ゴムボート川下り大会,盛岡の夏の風物詩。ゴムボートでのみ参加できる。50組ずつ10分間隔でスタートし、いかに早くゴールまでたどり着くかを競う。,39.69166491,141.1513157,/images/spots/Morioka_Activity_KawakudariGomuBoat.jpg,4,21,https://www.kawakudari-morioka.jp/2025_gaiyou.html
63,舟っこ流し,町内会等で子供会なども協力して舟を作る。 舟は竜の形をしているものが多い。 お札や遺影を貼り，提灯や供物などで飾りたてる。舟は明治橋上流に集められ，儀式のあと有志がひいて一艘ずつ川へ流され，火をつける。 燃えながら流れる舟は明治橋で燃えつきる。,39.6918722,141.1487,/images/spots/Morioka_Activity_FunakkoNagashi.jpg,4,19,http://moriokafunekkonagashi.com/
64,盛岡さんさ踊り,"「世界一の太鼓パレード」・「来て、観て、魅せられ、加わるさんさ」。８月１日～４日までの４日間、中央通をメイン会場とし""魅せる祭り""と""参加する祭り""のコラボレーションを展開。",39.70461482,141.1477971,/images/spots/Morioka_Activity_MoriokaSansasaOdori.jpg,4,19,https://sansaodori.jp/
65,チャグチャグ馬コ,“チャグチャグ”と鳴り響く鈴の音とともに、南部盛岡の街なかを馬コが練り歩く。「チャグチャグ馬コ」とは、華やかな装束を着飾った農用馬が、滝沢市の鬼越蒼前神社から盛岡市の盛岡八幡宮までの約14kmの道のりを行進する岩手県の伝統行事。,39.7478038,141.0725441,/images/spots/Morioka_Activity_ChaguChagUmako.jpg,4,19,https://chaguuma.com/
66,開運橋のライトアップ,ＪＲ盛岡駅と盛岡市内中心部を結ぶ開運橋。橋げたとアーチにＬＥＤ電球が取り付けられ、盛岡の夜を彩る。,39.70256373,141.1398514,/images/spots/Morioka_Activity_KaiunbashiLightUp.jpg,4,19,https://www.city.morioka.iwate.jp/kankou/kankou/1037103/1007931.html
67,盛岡競馬場（OROパーク）,ゆとり・自然・ふれあいをテーマにした緑鮮やかな競馬場。地方競馬屈指の偉容を誇る場内はいつも競馬ファンがあふれ、内に1400mの地方初のターフコース、外に1600mのダートコースを配した、感動と興奮が広がる舞台。,39.69272973,141.2196403,/images/spots/Morioka_Activity_MoriokaKeiba.jpg,4,19,http://www.iwatekeiba.or.jp/
68,玉山区夏まつり,石川啄木のふる里、盛岡市玉山地域の毎年恒例の夏祭り。間近であがる迫力のある豪華な花火の打ち上げ、ステージイベント、屋台など賑わいのあるお祭り。,39.85038501,141.165691,/images/spots/Morioka_Activity_TamayamaSummerFestival.jpg,4,19,https://iwatetabi.jp/events/9145/
69,三ッ石神社さんさ踊り奉納,"その昔、南部盛岡城下に羅刹（らせつ）という鬼が現れ、悪さをして暴れていた。困り果てた里人たちは、三ツ石神社の神様に悪鬼の退治を祈願し、神様は悪鬼をとらえ、二度と悪さをしないよう誓いの証として、境内の大きな三ツ石に鬼の手形を押させた。鬼の退散を喜んだ里人たちが、三ツ石のまわりを「さんささんさ」と踊ったのが""さんさ踊り""の始まりだと言われている。",39.70912478,141.1547829,/images/spots/Morioka_Activity_MitsuishiSansasaOdori.jpg,4,19,https://sansaodori.jp/about/
70,わんこそば,わんこそばは、岩手ならではの「おもてなし料理」。お給仕付きのお蕎麦の食べ放題。「はい、じゃんじゃん。はい、どんどん。」という掛け声とともに、お給仕さんによって手元のお椀にひと口分ほどの蕎麦が投げ込まれる。,39.70121291,141.1565109,/images/spots/Morioka_Food_Wankosoba.jpg,5,19,https://wankosoba.jp/
71,盛岡冷麺,盛岡冷麺の麺は、コシが強く、表面はツルッと喉ごしが良いのが特徴。牛骨に鶏ガラを加えてだしをとるスープは、和食のだしにはない、コクや旨みがたっぷり。しかも冷たいスープなので、麺のコシの強さをいっそう堪能することができる。,39.7035904,141.1366198,/images/spots/Morioka_Food_MoriokaReimen.jpg,5,19,http://www.gen-plaza.com/
72,細重酒店（細重商店）,盛岡では貴重なもっきり（角打ち）が楽しめる酒販店。「月の輪」の蔵元の親戚で、蔵だしの月の輪を200円台で楽しめる。地元のご隠居さんが集まり、盛岡の魅力を感じることができるお店。,39.6935315,141.1556483,/images/spots/Morioka_Food_HosojuuSaketen.jpg,5,19,https://syupo.com/archives/89018
73,神子田朝市,「盛岡の台所」。地元でとれた新鮮な野菜や果物、郷土料理のひっつみ、幻のスイーツ川村商店、マスコットキャラクターのあさどりくん、などが人気。,39.68849336,141.1623863,/images/spots/Morioka_Food_MikodaAsaichi.jpg,5,19,"https://www.mikoda.jp/ , https://iwatetabi.jp/spots/5898/"
74,じゃじゃ麺（白龍本店）,初代、高階貫勝（たかしな かんしょう）が戦前旧満州で食べてきた炸醤麺をもとに、盛岡に引き揚げてから盛岡の人に味を合わせるようにアレンジしたものが「じゃじゃ麺」のはじまり。,39.70348681,141.1520256,/images/spots/Morioka_Food_Jajamen.jpg,5,19,https://www.pairon.iwate.jp/
75,材木町よ市,土曜日に開催される市場。多種にわたる（萬）余るほど豊富な（余）良い商品を（良）お客様に提供し（与）満足していただく（喜）というように、萬（よろず）、余（よ）、良（よい）、与（よ）、喜（よろこぶ）というたくさんの意味が込められている。,39.70683714,141.1375407,/images/spots/Morioka_Food_ZaimokuchoYoshi.jpg,5,19,"https://www.zaimokucho-yoichi.com/ , https://www.facebook.com/zaimokucho.yoichi/?_rdr"
76,福田パン,盛岡市民のソウルフード。地元ならではの食文化や季節感を取り入れた具材選びにこだわり、50種類以上の具材から自由に組み合わせができるスタイルは、多様な味わいを楽しむことができる。,39.70971868,141.1429901,/images/spots/Morioka_Food_FukudaPan.jpg,5,19,https://www.fukudapan.com/
77,春子谷地湿原,春子谷地は、岩手山登山口の柳沢から姥屋敷方面へ約3km行ったあたりにあり、岩手山南東の鞍掛山山麓に開けた湿原で、標高450m前後であり鞍掛山（897m）からの伏流水（ふくりゅうすい）の湧水によって成りたっている。,39.79970803,141.0383786,/images/spots/Takizawa_Nature_Harukoyachi.jpg,1,22,"https://takizawa-kankou.jp/spot/harukoyachi/ , https://www.morioka-hachimantai.jp/spot/1372/"
78,鞍掛山,鞍掛山は岩手山の南麓にそそり立ち、標高は897メートル。登山初心者にも比較的登りやすく、また新緑の季節から雪上ハイクまで楽しめる親しみやすさも人気で、毎年3万人を超える登山者が訪れる。,39.82334681,141.0291317,/images/spots/Takizawa_Nature_Kurakakeyama.jpg,1,22,https://www.city.takizawa.iwate.jp/mtkurakake
79,ネイチャーセンター,「野鳥観察の森・ネイチャーセンター」は、野鳥や森の観察を楽しむための施設。双眼鏡やデジタルスコープ、自然に関する展示や図書等をそろえている。自然観察イベントも定期的に実施している。,39.81108762,141.1412552,/images/spots/Takizawa_Nature_NatureCenter.jpg,1,22,https://takizawa-fp.studio.site/
80,チャグチャグ馬コ初詣,愛馬精神から自然に生まれたのが馬の神をまつる「駒形（蒼前）神社」。チャグチャグ馬コが馬の守り神へその年の家内安全、五穀豊穣を祈願しに詣でる。,39.74751977,141.0718385,/images/spots/Takizawa_Nature_ChaguChagUmakoNewYear.jpg,4,22,https://www.city.takizawa.iwate.jp/onikosi_souzen
81,大沢南部曲り家チャグチャグ馬コ,南部曲り家は土間を隔てて居間と厩が続いたＬ字型の平面構造。人と馬が同じ屋根の下で生活し、飼育している馬の様子が良く見えるように工夫した造りになっている。祭りのときは装束を着飾った馬コが出迎えてくれる。,39.72460719,141.0671392,/images/spots/Takizawa_Nature_ChaguChagUmakoOsawa.jpg,4,22,https://takizawa-kankou.jp/spot/nanbu-magariyaw/
82,鳥越の滝（葛根田渓谷の秋）,滝の上温泉の蒸気、滝壺の深いブルーと落差30mにもなる滝から響き渡る轟音が圧巻の演出を見せている。春先には雪解け水による水量の増加で、更なる迫力が期待できる。,39.82499803,140.8748045,/images/spots/Shizukuishi_Nature_TorigoeNoTaki.jpg,1,23,https://www.rinya.maff.go.jp/tohoku/introduction/gaiyou_kyoku/annai/midokoro/midokoro_2018_11.html
83,千沼ヶ原,"秋田駒ヶ岳と岩手山の間に位置し、烏帽子岳東（乳頭山）に展開する神秘的な高層湿原であり、全体で1,000近くの池塘（沼）があることからこう呼ばれている。",39.79617419,140.8540942,/images/spots/Shizukuishi_Nature_Senshougahara.jpg,1,23,https://www.rinya.maff.go.jp/tohoku/introduction/gaiyou_kyoku/annai/midokoro/midokoro_sensyougahara.html
84,南部よしゃれ祭り,盛岡に近い雫石地方が本場で、「雫石よしゃれ」ともいわれる。戦国乱世の歴史を背景に興味豊かなロマンを織り交ぜて生まれた唄で地域の人々の精神的支えとして歌い継がれ里から里へと広まり、唄に入る情感は踊りとして表現され現在に至る。雫石では祝い事の席、わけて婚礼の祝宴には欠くべからざるものとして歌われ、踊られている。,39.69434284,140.9718673,/images/spots/Shizukuishi_History_NambuYoshareMatsuri.jpg,2,23,"https://iwatetabi.jp/events/8050/ , https://www.town.shizukuishi.iwate.jp/tag/%E3%82%88%E3%81%97%E3%82%83%E3%82%8C%E7%A5%AD/"
85,鶯宿温泉,肌ざわりの柔らかな温泉で心も体も温まる、パノラマ自慢の空中露天風呂や、広々とした大浴場、貸切風呂などを楽しめる。,39.63908351,140.9310095,/images/spots/Shizukuishi_Resort_O-shukuOnsen.jpg,3,23,"https://www.shizukuishi-kanko.gr.jp/nature/article.php?p=46 , https://iwatetabi.jp/spots/61292/"
86,国見温泉,深山の大気に包まれて、時がゆったりと感じ、心からおおらかな気分になる。この温泉の利用は、文化文政時代古くは南部の殿様の隠し湯と言われ、道なき道をかごに乗り湯治に来たことから始まった。,39.72733715,140.7937788,/images/spots/Shizukuishi_Resort_KunimiOnsen.jpg,3,23,http://www5.famille.ne.jp/~kunimihp/
87,あねっこの湯,洋風・和風の二つのスタイルが楽しめる日帰り温泉。温泉質はアルカリ性単純泉で、美肌に効果的。色白美人として知られる「雫石あねっこ」を想わせるお湯が、いで湯の情緒を醸しだす。,39.70629015,140.87463,/images/spots/Shizukuishi_Resort_AnekkoNoOnsen.jpg,3,23,https://www.anekko.co.jp/
88,網張温泉,すぐ近くにある神社「網張薬師社」が名前の由来。この地は網張温泉が明治初期に湯治場として開かれた場所に近く、その後、町営の網張荘を経て、休暇村が誘致を受け、昭和４０年に最初の宿舎を建てた場所でもある。その後、現在の温泉館が建った。,39.8219429,140.9413395,/images/spots/Shizukuishi_Resort_AmihariOnsen.jpg,3,23,https://www.qkamura.or.jp/iwate/oneday/
89,網張温泉 仙女の湯,滝の流れ落ちる沢沿いにある秘湯。 諸説あるが、滝を背景に立ち上る湯けむりを羽衣をまとった仙女に見立てたことが名前の由来といわれている。,39.8223377,140.9391749,/images/spots/Hachimantai_Resort_AmihariOnsenSennyo.jpg,3,23,https://www.qkamura.or.jp/iwate/
90,道の駅・雫石あねっこ,岩手と秋田の県境、緑連なる山あいにある道の駅雫石あねっこは、長い道中の休憩スポット。アウトドアも温泉も、お買物も楽しめる。,39.70639552,140.8750701,/images/spots/Shizukuishi_Resort_AnekkoNoMichiNoEki.jpg,5,23,https://www.anekko.co.jp/
91,徳丹城跡,出土品は土師器、須恵器、布目瓦と西門の柱に「由北角柱」の四字が刻まれたものなどが発見されている。徳丹城は、鎮守府胆沢城の最北前衛基地としての機能をもった史上貴重な遺跡である。,39.60786106,141.1723795,/images/spots/Shizukuishi_History_Tokutanjou.jpg,2,24,http://www.bunka.pref.iwate.jp/archive/hist105
92,城山公園,町のほぼ中心にある小高い丘で、中世期には斯波氏の居城高水寺城が築かれたといわれ、歴史的にも価値が高い遺跡。春には約２千本の桜で公園が彩られ、少し離れたところから見ると丘全体が桜色に見えるほど。お花見シーズンにはたくさんの見物客で賑わう。自由に散歩やジョギングができ、キャンプ場で楽しむこともできる。,39.56449451,141.1732006,/images/spots/Shiwa_Nature_ShiroyamaPark.jpg,1,25,https://iwatetabi.jp/spots/5294/
93,ぶどう園,緑の丘陵が連なる紫波町佐比内地区は岩手県でも有数のぶどう生産地。ふりそそぐ太陽と心地よい涼風のもとぶどう園でのひと時を満喫できる。,39.49033883,141.2316305,/images/spots/Shiwa_Food_Budouen.jpg,5,25,http://www.iwate-budo.com/
94,大空滝,奥羽山脈の中腹にある高さ83m、幅6mの滝。真下から眺めれば、大空から落下しているようなのでこの名が付いたと言われている。周辺には、ブナの原生林が広がり景観がすばらしい。,39.49876694,140.8866682,/images/spots/Hanamaki_Nature_O-soranoTaki.jpg,1,26,"https://iwatetabi.jp/spots/4637/ , https://www.city.hanamaki.iwate.jp/kanko/midokoro/shizen/1003919.html"
95,早池峰,日本百名山のひとつ早池峰山(標高1917m)は北上山地のほぼ中央に位置し、ハヤチネウスユキソウをはじめ約200種類の高山植物の宝庫で、花の名山としても知られている。,39.55959289,141.4937916,/images/spots/Hanamaki_Nature_Hayachine.jpg,1,11,https://www.kanko-hanamaki.ne.jp/activity/article.php?p=184
96,たろし滝,冬には「たろし滝」といわれる氷柱がみられ、毎年2月11日には、氷柱の太さを測り、その年の米の作柄を占う伝統行事「たろし滝測定会」が行われる。,39.50742025,141.0644336,/images/spots/Hanamaki_Nature_TaroShiTaki.jpg,1,26,https://www.city.hanamaki.iwate.jp/kanko/midokoro/shizen/1003913.html
97,釜淵の滝,花巻温泉を流れる台川沿いにある滝。高さ8.5m、幅3m0の大きな岩の上を清流が幾筋にも別れ、滝壺に落ちていくさまは爽快である。釜淵の滝周辺の森林は遊歩道になっており、木漏れ日のなかを歩ける手ごろな散策コース。,39.45610798,141.0659768,/images/spots/Hanamaki_Nature_KamabuchinoTaki.jpg,1,26,https://www.kanko-hanamaki.ne.jp/activity/article.php?p=183
98,イギリス海岸,イギリスのドーバー海峡の白亜の海岸を連想させる泥岩層が露出することにちなみ、賢治がイギリス海岸と名付けた場所。現在は北上川水系のダム整備による河川管理が進み、水位が下がらなくなったため、泥岩層を見ることが難しくなっている。,39.39511282,141.1292356,/images/spots/Hanamaki_Nature_EnglishKaigan.jpg,1,26,https://www.kanko-hanamaki.ne.jp/spot/article.php?p=136
99,花巻温泉バラ園,"広さ約5,000坪の敷地に約450種6,000株をこえるバラが四季折々に鮮やかな色彩と豊かな香りで庭園を彩る。",39.52418076,141.0874818,/images/spots/Hanamaki_Nature_HanamakiOnsenBaraEn.jpg,1,26,https://www.hanamakionsen.co.jp/rose/
100,五輪峠,五輪塔が道脇に建っていることから、「五輪峠」の名で呼ばれるようになった。峠はかつての盛岡藩領と仙台藩領の藩境で、麓には両藩の境目番所があった。明治中期まで遠野と江刺（現 奥州市江刺区）を結ぶ唯一の街道であった。,39.26262967,141.3649633,/images/spots/Hanamaki_Nature_GorinToge.jpg,1,26,https://ihatovstn.jp/iwate-southern-region/gorin-pass/
101,七折の滝,「ひょんぐり」滝と呼ばれる水が真横へ勢いよく飛び出す様は全国でも稀な光景！名前の通り何度も折れ曲がるように落下する姿は見ごたえ充分で、秋は紅葉スポットとしても人気がある。,39.55283562,141.4119918,/images/spots/Hanamaki_Nature_NanaoriNoTaki.jpg,1,26,https://www.kanko-hanamaki.ne.jp/spot/article.php?p=487
102,葛丸一ノ滝,奥羽山脈を源とする渓流です。バードウォッチングや森林浴、渓流釣りにハイキング、そして紅葉狩りなど、自然に親しむのに絶好なところ。宮沢賢治の童話『楢の木大学士の野宿』などの舞台となった。,39.50894458,141.0658614,/images/spots/Hanamaki_Nature_KuzumaruIchinotaki.jpg,1,26,https://www.takipedia.com/detail/420
103,円万寺,奥羽３３観音補陀洛の２番札所、清水寺と同じ坂上田村麻呂が東夷を平定時の建立。ここの馬頭観世音には忍び駒が伝わっており、この碑がある。また、高台に位置しており、展望地としても人気が高い。,39.41246095,141.0481105,/images/spots/Hanamaki_History_Enmanji.jpg,2,26,"https://www.kanko-hanamaki.ne.jp/spot/article.php?p=160 , https://iwatetabi.jp/spots/5451/"
104,花巻市博物館,縄文式住居や古墳、城下町のようすや花巻人形など、縄文時代から現代までの花巻地方の歴史や文化、暮らしを「考古」「歴史」「美術・工芸」の三分野に分け展示、紹介している。,39.3997786,141.1682013,/images/spots/Hanamaki_History_HanamakishiMuseum.jpg,2,26,"https://www.kanko-hanamaki.ne.jp/spot/article.php?p=162 , https://www.city.hanamaki.iwate.jp/bunkasports/bunka/1019887/1008981/index.html"
105,新渡戸記念館,日本を代表する国際人・新渡戸稲造が創設した博物館施設「新渡戸記念館」。ここでは、博士の遺品とともに、十和田市のルーツとなった父祖の三本木原開拓の資料や、新渡戸家伝来の甲冑の展示などを通して、稲造が世界に発信した「武士道」の精神的源流を知ることができる。,39.39064488,141.1611199,/images/spots/Hanamaki_History_Nitobekinenkan.jpg,2,26,"https://www.kanko-hanamaki.ne.jp/spot/article.php?p=149 , https://www.city.hanamaki.iwate.jp/bunkasports/bunka/1019887/nitobekinenkan/1001975.html"
106,宮沢賢治記念館,昭和57年(1982年)に、ゆかりの地、花巻市胡四王山に開館した宮沢賢治記念館。多彩なジャンルに及ぶ宮沢賢治の世界との出会いの施設。,39.39980377,141.162584,/images/spots/Hanamaki_History_KenjiKinenkan.jpg,2,26,"https://www.city.hanamaki.iwate.jp/miyazawakenji/kinenkan/index.html , https://www.kanko-hanamaki.ne.jp/spot/article.php?p=131"
107,南斜花壇,賢治が残した設計図を元に再現された南斜花壇と日時計花壇がある。どちらの花壇も異国風の模様を取入れ設計し、花で創作を楽しんだ賢治の一面が伺える。,39.3991145,141.1631644,/images/spots/Hanamaki_Hisotry_SouthSlideFlowerGarden.jpg,2,26,"https://iwatetabi.jp/spots/5189/ , https://www.city.hanamaki.iwate.jp/miyazawakenji/kinenkan/1023018.html"
108,賢治詩碑,賢治が農民に化学・土壌等の講義をした「羅須地人協会」跡地に建つ詩碑。碑の文字は、高村光太郎の書によるもの。石碑の前からは、「下ノ畑」である賢治自耕の地を一望することもできる。,39.37492761,141.1268558,/images/spots/Hanamaki_Hisotry_KenjiShihi.jpg,2,26,"https://iwatetabi.jp/spots/4855/ , https://www.kanko-hanamaki.ne.jp/spot/article.php?p=143"
109,羅須地人会 下ノ畑,「羅須地人協会」の黒板に書かれた「下ノ畑ニ居リマス賢治」の文字。それを指す場所がここ「賢治自耕の地（下ノ畑)」。今でも周辺には畑が広がり、ここで作業をする賢治の姿が浮かんでくるようだ。,39.44185905,141.1413621,/images/spots/Hanamaki_History_RoshidaijinKai_RasuChijinKai.jpg,2,26,"https://www2.iwate-ed.jp/hka-h/posts/news26.html , https://www.kanko-hanamaki.ne.jp/spot/article.php?p=144"
110,猫のじむしょ,「宮沢賢治イーハトーブ館」の入口に、「猫のじむしょ」と銘打たれた、売店・喫茶コーナーがある。売店では、賢治の作品集や研究書などの書籍や、賢治に関するさまざまなグッズを扱っている。,39.39768104,141.1644821,/images/spots/Hanamaki_History_NekoNoJimusyo.jpg,2,26,https://iwatetabi.jp/spots/5800/
111,早池峰と賢治の展示館,早池峰と賢治にかかわる作品紹介、賢治が常宿としていた旧石川旅館の部屋再現、風の又三郎の舞台といわれる猫山のモリブデン鉱石などを展示している。,39.46684067,141.2870499,/images/spots/Hanamaki_History_HayachineKenjiTenjikan.jpg,2,26,"https://www.kanko-hanamaki.ne.jp/spot/article.php?p=146 , https://iwatetabi.jp/spots/5800/"
112,月夜の電信柱,一戸町観光天文台の前にある石碑。碑のテキストは、童話集『注文の多い料理店』に収められている「月夜のでんしんばしら」からとられています。電信柱たちが列になって行進しながら歌う、不思議な軍歌の出だしの部分。,39.39470297,141.1092828,/images/spots/Hanamaki_Hisotry_MoonNightDenshinbashira.jpg,2,26,http://www.harnamukiya.com/guidebook/page02.html
113,宮沢賢治イーハトーブ館,宮沢賢治と作品を愛する方々により発表された賢治に関する様々なジャンルの芸術作品、研究論文を数多く収集した文学館。,39.39730974,141.1645725,/images/spots/Hanamaki_History_KenjiIhatovHall.jpg,2,26,"https://www.kenji.gr.jp/ihatov_hall/, https://www.kanko-hanamaki.ne.jp/spot/article.php?p=132"
114,宮沢賢治童話村,宮沢賢治童話村は、今にもジョバンニや又三郎、山猫がでてきそうな賢治童話の世界で楽しく学ぶ「楽習（がくしゅう）」施設。童話村は、「銀河ステーション」、「銀河ステーション広場」、「妖精の小径」、「天空の広場」、「山野草園」、そしてメインの「賢治の学校」があり、賢治の学校の中は「ファンタジックホール」、「宇宙」、「天空」、「大地」、「水」の５つのゾーンに分かれている。,39.39829762,141.1709563,/images/spots/Hanamaki_History_KenjiDowamura.jpg,2,26,"https://iwatetabi.jp/spots/4996/ , https://iwatetabi.jp/spots/4996/"
115,南部杜氏伝承館,南部杜氏による酒造りの伝統文化を保存・伝承する展示施設。 建物自体も古くから伝わる酒蔵を解体復元した、歴史的にも文化的にも貴重な土蔵造りの建物。,39.48390376,141.1420598,/images/spots/Hanamaki_Hisotry_NanbutochiDenshoukan.jpg,2,26,"https://www.kanko-hanamaki.ne.jp/spot/article.php?p=163 , https://www.city.hanamaki.iwate.jp/bunkasports/bunka/1019887/sonotashisetsu/1002031.html"
116,高村光太郎記念館,高村光太郎記念館では、光太郎の代表作である「手」や「乙女の像・中型試作」等彫刻の他、花巻での山居7年で遺された様々な資料等を展示している。高村光太郎が1945年から約7年を過ごした山荘と隣接し、2015年4月、記念館は全館リニューアル。,39.38816008,141.0058081,/images/spots/Hanamaki_Hisotry_TakamuraSansou.jpg,2,26,"http://www.hanamaki-takamura-kotaro.jp/ , https://www.hanamaki-takamura-kotaro.jp/"
117,どんぐりとやまねこ号,岩手県花巻市内にある観光スポットをお得に巡れる観光タクシー。,39.39330111,141.1107393,/images/spots/Hanamaki_Hisotry_DonguriToYamaneko.jpg.jpg,2,26,"https://www.kanko-hanamaki.ne.jp/donguri_yamanekogou/ , https://www.kanko-hanamaki.ne.jp/event/event_detail.php?id=214"
118,志戸平温泉,涼やかな音色を奏でる豊沢川のほとりにある、ホテル志戸平は翠深い山あいの静けさに包まれた渓流のリゾート。,39.41754545,141.0122409,/images/spots/Hanamaki_Resort_ShidotairaOnsen.jpg,3,26,http://www.shidotaira.co.jp/
119,大沢温泉,1200年前に発見されたとされる大沢温泉。近代和風旅館の山水閣、160年前の茅葺の別館菊水館、200年以上前に建てられた湯治屋。趣の異なる3棟で過ごせる。,39.43570464,141.0150597,/images/spots/Hanamaki_Resort_OosawaOnsen.jpg,3,26,https://www.oosawaonsen.com/
200,わんこそば全日本大会,毎年2月11日（わんこそば記念日）に岩手県花巻市で開催。郷土料理のわんこそばを制限時間の3〜5分以内に何杯食べられるかを競うなんともユニークな競技。,39.38515235,141.1016182,/images/spots/Hanamaki_Activity_WankosobaCompetition.jpg,4,26,https://www.kanko-hanamaki.ne.jp/special/wankosoba/
201,花巻祭り,花巻郡代北松斎の時代にはじまった。期間中は深い情感と優雅な気品に満ちた花巻ばやしにあわせ繰り出される華麗な風流山車のほか、世界一となった神輿パレードの迫力や岩手県を代表する郷土芸能の鹿踊演舞、花巻市の20団体余が参加する神楽権現舞演舞、約500人が手踊りをする花巻ばやし踊りが繰り広げられる。,39.38615181,141.116711,/images/spots/Hanamaki_Activity_HanamakiFestival.jpg,4,26,"https://www.kanko-hanamaki.ne.jp/event/event_detail.php?id=48 , https://iwatetabi.jp/events/8085/"
202,賢治祭,宮沢賢治の命日である9月21日に賢治詩碑前で献花や詩の朗読、賢治作品の歌の合唱、劇などが行なわれる。,39.38609322,141.1017204,/images/spots/Hanamaki_Activity_Kenjisai.jpg,4,26,https://www.kanko-hanamaki.ne.jp/event/event_detail.php?id=50
203,倉沢人形歌舞伎,創始者である菅野常次郎氏が、子どもの頃に見た水押人形芝居（北上市）に興味を持ち、明治27年（1894）に自分の作った人形と道具で義太夫節に合わせて台詞を話しながら演技する人形芝居を始めたのが倉沢人形歌舞伎の始まり。,39.3296502,141.2516975,/images/spots/Hanamaki_Activity_KurasawaNingyoKabuki.jpg,4,26,"https://www.kanko-hanamaki.ne.jp/event/event_detail.php?id=100 , https://iwatetabi.jp/events/8908/"
204,早池峰神楽,早池峰神楽は大償（おおつぐない）と岳（たけ）の2つの神楽座の総称で、昭和51年(1976年)5月4日、国の重要無形民俗文化財に指定され、平成21年（2009年）にユネスコの無形文化遺産に登録された。,39.53828778,141.41533,/images/spots/Hanamaki_Activity_HayachineKagura.jpg,4,26,"https://www.kanko-hanamaki.ne.jp/special/kagura/ , https://www.kanko-hanamaki.ne.jp/spot/article.php?p=151"
205,泣き相撲大会,東和町・三熊野神社に古くから伝わるお子様の成長を祈願するユニークな神事。6ヶ月〜1歳半までの子供を親方が抱いて土俵に上がり「ヨッーヨッー」という掛け声でお互いの顔を近づけ泣いたほうが負け。,39.36578211,141.1977338,/images/spots/Hanamaki_Activity_NakizumoCompetition.jpg,4,26,https://www.kanko-hanamaki.ne.jp/event/event_detail.php?id=32
206,大沢温泉金勢まつり,大沢温泉敷地内にある仮宮にて欅（けやき）で出来たご神体をご祈祷。神楽や太鼓を奉納した後、露天風呂大沢の湯に移動し、ご神体を洗い清める。そして、ご神体を露天風呂に浮かべ、祈願される女性たちが、ご神体にまたがって露天風呂内を回る。,39.43633768,141.0155848,/images/spots/Hanamaki_Activity_OsawaKonseiMatsuri.jpg,4,26,https://www.tohokukanko.jp/attractions/detail_1004089.html
207,ワインまつり,ぶどうとワインの産地として知られる花巻市大迫で開催されるイベント。恒例のワイン娘による「ぶどう踏み」や、大迫特産ワインや特産物販売、ワイン餅まき、早池峰神楽の上演など多彩な催しが行われる。,39.46663896,141.2841729,/images/spots/Hanamaki_Activity_WineMatsuri.jpg,4,26,"https://www.kanko-hanamaki.ne.jp/event/event_detail.php?id=928 , https://iwatetabi.jp/events/7991/"
208,鹿踊り,地域の平安と悪霊の退散を祈願する舞、といわれる鹿踊。貴重な民俗芸能として、岩手県の無形民俗文化財に指定されている。様式は「幕踊り」と「太鼓踊り」に大別されますが、花巻の鹿踊の多くは「太鼓踊り系」である。,39.38619643,141.1184775,/images/spots/Hanamaki_Activity_ShishiOdori.jpg,4,26,https://www.kanko-hanamaki.ne.jp/spot/article.php?p=152
209,大迫宿場の雛祭り,花巻市大迫町は、昔、絹生産が盛んで、京都と取引を行っていた。そのため、京の雛人形が旧家や商家に多く残されている。享保雛や次郎左衛門雛、古今雛など、江戸時代から明治時代にかけて作られた雛人形が、町内の旧家や商店の軒先を彩る。,39.47956141,141.2912269,/images/spots/Hanamaki_Activity_OhasamaYadobaNoHinaMatsuri.jpg,4,26,"https://www.hanamaki-cci.or.jp/hina/ , https://iwatetabi.jp/events/8089/"
210,胡四王神社蘇民祭,この祭りは正月に開催され、無病息災と五穀豊穣を祈願する祭ある。慶応元年が起源で社務所前での餅つきにはじまり、市内の青年数十名が松明を手に裸参りで山頂に到着、境内外を清める浄火祭の後力餅をまき蘇民袋の争奪戦を展開する。尚、2025年は中止となった。,39.40176421,141.1611328,/images/spots/Hanamaki_Activity_KoshiouJinjaSominsai.jpg,4,26,"https://www.kanko-hanamaki.ne.jp/event/event_detail.php?id=312 , http://www.bunka.pref.iwate.jp/archive/p1765"
211,大迫あんどんまつり,約200年前、天明の大飢饉で餓死した人々を弔うために始まったと伝えられる祭り。高さ約5メートルのあんどんは、障子紙にロウで色を塗って作製。武者絵など4台の山車が各組から繰り出し、帰省客でにぎわう町の夜空を彩る。花巻市指定無形民俗文化財に指定されている。,39.46670326,141.2842695,/images/spots/Hanamaki_Activity_OhasamaAndonMatsuri.jpg,4,26,"https://iwatetabi.jp/events/8077/ , https://www.kanko-hanamaki.ne.jp/event/event_detail.php?id=45"
212,小正月行事カラスの墨つけ,花巻市東和町北成島の成島熊野神社でおこなわれている行事。 同神社御神紋・二羽カラスに由来し、古くから地域で行われていたという魔よけの風習。一時は途絶えていたものの同町北成島、南成島両地区の有志によって数十年前に復活し、家々から持ち寄った正月飾りを燃やす「どんと祭」に合わせて行われている。,39.36705965,141.1983787,/images/spots/Hanamaki_Activity_KarasuNoKoshougatsu.jpg,4,26,https://www.iwanichi.co.jp/2025/01/14/14205414/
213,マルカン大食堂,マルカンビルの6階にあり岩手県花巻市の街並みを一望出来る席数550席の展望大食堂です。「10段巻きの箸で食べるソフトクリーム」が有名。,39.38662759,141.1172816,/images/spots/Hanamaki_Food_MarukanDaiShokudou.jpg.jpg,5,26,https://www.kamichoyamori.com/marukan-bldg-restaurant
214,ワインシャトー大迫,ワインシャトー大迫内に併設されているテイスティングルームでは、風味、味わい、希少価値など様々な個性を持ったワインを取り揃え、それぞれ有料にて試飲できる。,39.47452676,141.285214,/images/spots/Hanamaki_Food_WeinChateauOhazama.jpg,5,26,"https://edelwein.co.jp/edel_info/wein_chateau , https://www.kanko-hanamaki.ne.jp/spot/article.php?p=389"
215,猿ヶ石川の桜並木,昭和22、23年の台風により猿ヶ石川流域は甚大な被害を受け、両岸に堤防が築造された。堤防の完成を記念して昭和28年に地元出身者の獣医学者で盛岡高等農林学校（岩手大学農学部の前身）教授である菊池賢次郎氏がソメイヨシノの苗木を寄贈。地元青年会がこれを植樹した。上鱒沢地区で40年以上前から桜並木の手入れを行っている。,39.31815055,141.4453579,/images/spots/Tono_Nature_SarugaiwaSakura.jpg,1,27,"https://www.city.tono.iwate.jp/index.cfm/48,73878,303,656,html"
216,続石,「続石」は鳥居状の形をした巨石の造形物。2つ並んだ石の左側のみに、幅7メートル、奥行き5メートル、厚さ2メートルほどの巨石が「笠石」として乗っていて、絶妙なバランスをとっている。,39.33775958,141.4493615,/images/spots/Tono_Nature_TsuzukiIshi.jpg,1,27,"https://iwatetabi.jp/spots/4448/ , https://tonojikan.jp/tourism/tsuzuki-ishi/"
217,伝承園 水車,遠野市土淵町に在る「 伝承園 」。この伝承園内の水車小屋。現在のいわて遠野かやぶき士だけで施工した初めてのかやぶき屋根、幾度となくやり直し試行錯誤の上完成させた。,39.36093495,141.5700089,/images/spots/Tono_History_DenshoenSuisha.jpg,1,27,"https://iwatetabi.jp/spots/4088/ , https://www.densyoen.jp/"
218,山口の水車,山口集落にある、今でも現役で動いている数少ない茅葺屋根の水車小屋。奥に山、田んぼが広がり、遠野の穏やかな農村の風景が印象的な場所。,39.36000588,141.6204773,/images/spots/Tono_History_YamaguchiNoSuisha.jpg,1,27,"https://tonojikan.jp/tourism/yamaguchi-water-mill/ , https://www.city.tono.iwate.jp/index.cfm/48,73622,303,656,html"
219,遠野綾織の芝桜,色鮮やかなピンク色や白色に染まった芝桜が、春の達曽部を彩っている。この芝桜は、孝喜さんの母・今子さんが庭先にちょっとした彩りを加えようと６０年前から少しずつ植えたもの。,39.43420023,141.3761875,/images/spots/Tono_Nature_ShibaSakura.jpg,1,27,https://www.tonotv.com/html/catv/daily/2021/05/14/4.html
220,五百羅漢,天明3年（1765年）大慈寺19代義山（ぎざん）和尚が、度重なる凶作による餓死者を鎮魂するため、大小500の自然石に阿羅漢像を彫り続け、今も残されている。,39.32283727,141.5127197,/images/spots/Tono_History_Gohyakurakan.jpg,1,27,"https://iwatetabi.jp/spots/4279/ , https://tonojikan.jp/tourism/gohyakurakan/"
221,カッパ淵,常堅寺の裏にあるカッパ淵は、澄んだ水が流れ、うっそうとした茂みに覆われ、今にもカッパが現れそう。淵の岸辺には、カッパ神を祀った小さな祠があり、子持ちの女性がお乳が出るようにと願をかけると願いがかなうといわれている。,39.35422514,141.5709548,/images/spots/Tono_Nature_Kappabuchi.jpg,1,27,"https://tonojikan.jp/tourism/kappabuchi-pool/ , https://iwatetabi.jp/spots/4259/"
222,JR釜石線,岩手県の花巻駅と釜石駅を結ぶＪＲ東日本の路線。岩手県出身の宮沢賢治の「銀河鉄道の夜」は釜石線の前身の岩手軽便鉄道がモデルと言われ、「銀河ドリームライン釜石線」の愛称でも呼ばれている。,39.33028875,141.4909025,/images/spots/Tono_Activity_JRKamaishiLine.jpg,4,27,https://www.jreast.co.jp/morioka/kamaishi/
223,高清水展望台,標高797.7mの高清水山にある展望台。遠野市を一望でき、湖だった頃の遠野を偲ぶことのできる場所。展望台近くにある高清水高原には牛が放牧されている。,39.35830321,141.5025596,/images/spots/Tono_Nature_TakashimizuTenbodai.jpg,1,27,"https://tonojikan.jp/tourism/takashimizu-observatory/ , https://tonojikan.jp/feature/spectacular-view-of-takashimizu-observatory/"
224,荒川高原牧場,荒川高原牧場は、中世以来の長期に渡る放牧の歴史を持ち、市内最大の規模と放牧種の多さを誇る牧場である。牧場内には「山神」の石碑があり、山麓には多くの信仰を集めた「荒川駒形神社」が存在するなど、遠野の生業と自然、歴史が一体となって生まれた独自の文化的景観を有する。,39.45355013,141.5982656,/images/spots/Tono_Nature_ArakawaKougenFarm.jpg,1,27,"https://www.bunkeikyo.jp/landscape/landscape-206 , https://tonojikan.jp/tourism/arakawakougen-ranch/"
225,遠野城下町資料館,遠野南部氏１万２千石の城下町として発展してきた遠野市は、内陸部と沿岸部を結ぶ交易の拠点として多くの物資や人々が集まり、様々な商家が軒を連ねて賑わって来た。 城下町資料館は、江戸時代の遠野を城下行列図や保存されていた数多くの歴史的な品を展示し、紹介している。,39.33125153,141.5292842,/images/spots/Tono_History_TonoJoukamachiShiryoukan.jpg,2,27,"https://iwatetabi.jp/spots/4085/ , https://tonojikan.jp/tourism/tono-joukamachi-shiryoukan/"
226,遠野伝承園 御蚕神堂（オシラ堂）,「御蚕神（オシラ）堂」では、願い事を布に書いて、オシラサマに着せてお祈りすると、願い事が叶うと言われている。また、壁がすべて板で作られている納屋の「板倉」の中は、『遠野物語』と「かっぱ」を楽しめる観光スポットだ。,39.35821128,141.5696344,/images/spots/Tono_History_Oshirado.jpg,2,27,"https://tonojikan.jp/tourism/denshoen/ , https://japanmystery.com/iwate/osirasama.html"
227,遠野ふるさと村,遠野ふるさと村の広大な森林の中に広がる8.8ヘクタールの敷地には、遠野地域に残された江戸時代から大正時代にかけて建てられた貴重な南部曲り家7棟と付属する納屋などが移築され、かつての遠野の山里を再現した景色はまるでタイムスリップしたかのよう。,39.39640711,141.5424683,/images/spots/Tono_History_TonoFurusatoMura.jpg,2,27,http://www.tono-furusato.jp/
228,遠野郷,文治5年（1189）、平泉の藤原氏の追討に従軍として功がり、源頼朝から遠野郷を賜った阿曽沼広綱が宇夫方広房を代官として送り、松崎村駒林に「館」を築き、氏神である八幡神をまつり、遠野郷を統治した。その後、阿曽沼広綱が横田城を築き東北（鬼門）である宮代に八幡宮を勧請して崇敬した。遠野郷の総鎮守。祭日は9月中旬で各郷土芸能が出揃う。,39.34444032,141.5454548,/images/spots/Tono_History_TonoGo.jpg,2,27,"https://iwatetabi.jp/spots/4078/ , https://www.tono8man.com/"
229,遠野神楽,神人神楽と山伏神楽の系統で伝承されている。神人派はゆるやかなテンポで優美さがあり、山伏派は早くて躍動感がある。神楽の発生は神への鎮魂儀礼に発するといわれ、祭りに行うのは古代信仰の名残である。,39.34384116,141.5467029,/images/spots/Tono_History_TonoKakura.jpg,2,27,"https://iwatetabi.jp/spots/4257/ , https://www.city.tono.iwate.jp/index.cfm/48,73884,303,656,html"
230,遠野しし踊り,県内各地で踊られる鹿踊は、踊りの様式から大別して太鼓踊り系（県南地方）と幕踊り系（県北地方）に分けられる。太鼓踊り系は1～3mの長いササラ竹を背負い、腹に太鼓を下げ、太鼓を打ち鳴らしながら踊り、鹿面の大きいのが特徴。幕踊り系は、両手に幕を下げ、笛や太鼓のハヤシが別について踊るもので遠野鹿踊り以外は鹿の面も小さい。太鼓踊り系の起源は、奈良の春日大社の神事に由来し、村の平安を祈願し、悪霊を追い払う行事の舞踊化されたものといわれ、現在のような装束は江戸時代からのものと思われる。日出神社まつり・お伊勢まつり・南部神社まつり・遠野八幡宮まつり。,39.32786355,141.5289936,/images/spots/Tono_History_TonoShishiOdori.jpg,2,27,https://iwatetabi.jp/spots/4454/
231,遠野めがね橋,西の玄関口となる、宮守町を代表する観光名勝の１つ。宮守川橋梁（通称:めがね橋）は、昭和18年9月完成。長さ107.3m、高さ20.6mで20mの間隔で5連のアーチが並んでいる。手前にあるレンガ造りの柱は、大正４年11月に作られた岩手軽便鉄道の鉄橋の一部。,39.34715393,141.3494308,/images/spots/Tono_Hitory_Meganebashi.jpg,2,27,"https://www.city.tono.iwate.jp/index.cfm/45,26756,255,html , https://tonojikan.jp/tourism/megane-bridge/"
232,遠野市立博物館,国内でも屈指の民俗専門博物館で、『遠野物語』の世界を豊富な映像やジオラマ、実物資料で紹介している。展示室は3つのテーマに分かれており、第1展示室ではマルチスクリーンやプロジェクションマッピングを活用して、『遠野物語』の世界を体感できる。,39.32828298,141.5291941,/images/spots/Tono_Hitory_TonoshirituMuseum.jpg,2,27,"https://www.city.tono.iwate.jp/index.cfm/48,25002,166,html"
233,菅原神社,境内129坪 本殿 三間四面 拝殿 四間二間 老杉の並木 境域一帯に松、杉等が茂る。創建は明らかではない。「天神の山には祭りありて獅子踊あり…」と『遠野物語』119話にあり、天神の森として有名である。祭日は旧7月25日、地域の子どもが例祭当日に習字の清書を奉納する慣習があるという。,39.41250331,141.5315692,/images/spots/Tono_History_SugawaraJinja.jpg,2,27,https://ganshinsei.livedoor.blog/archives/13886295.html
234,荒神神社,春先は田園の中、秋は黄金色の稲穂の中の神社となり、遠野らしい風景を楽しめる。,39.3427944,141.6000366,/images/spots/Tono_History_ArakamiJinja.jpg,2,27,"https://www.city.tono.iwate.jp/index.cfm/48,73660,303,656,html"
235,遠野早池峰神社,遠野三山の神霊が祀られている早池峯神社は、大同元年（806）六月十八日山頂に普賢坊が一宮を建立し、神霊を祀ったのが始まりと伝えられている。現在は、広大な境内に年老いて古びた杉や桧の巨木がうっそうと覆い、森厳の気が漂う場所。七月十八日には例祭が行われ、近くの滝川に神輿を渡御して川の水をかけながら洗う神輿洗いが有名。,39.49158925,141.5893782,/images/spots/Tono_History_HayachineShrine.jpg,2,27,"https://tonojikan.jp/tourism/hayachine-shrine/ , https://iwatetabi.jp/spots/4059/"
236,火渡の石碑群,「…石塔の多きこと諸国其の比を知らず…」『遠野物語』の序文が示すとおり、路傍の石碑は、遠野を象徴するものである。この石碑群は、背後の田園風景とあいまって、景観的に良好であることから、様々な刊行物の写真の被写体として利用されている。,39.403122,141.5366856,/images/spots/Tono_History_HiwatarinoSekihigun.jpg,2,27,"https://www.city.tono.iwate.jp/index.cfm/48,73640,303,656,html"
237,卯子酉神社,『遠野物語拾遺』第35話には淵の主に芦へ紙に書いた恋の願いを結びつけておくと男女の縁が結ばれるとの伝説が残されていて、現在も敷地内の木の枝に片手で赤い布を結びつけることができれば良縁に恵まれ、男女が結ばれるという風習が残っており、多くの観光客が訪れている。 ,39.32542436,141.5138013,/images/spots/Tono_History_UnedoriJinja.jpg,2,27,"https://tonojikan.jp/tourism/unetori-shrine/ , https://www.city.tono.iwate.jp/index.cfm/48,73902,303,656,html"
238,遠野どべっこ祭り,「どべっこ」とは、遠野の造り酒屋が祭りのために、特別に仕込んだ昔懐かしい濁り酒のこと。遠野ふるさと村の曲り家で「どべっこ」を飲みながら、ハレの田舎料理を楽しむお祭り。神楽や囲炉裏端での昔話等、さまざまな催しで冬の遠野を満喫できる。,39.39803534,141.5444848,/images/spots/Tono_Activity_TonoDobekkoMatsuri.jpg,4,27,https://iwatetabi.jp/events/8349/
239,遠野まつり,遠野まつりの魅力は、暮らしに根付いた多種多様な郷土芸能団体が一同に集結する迫力、華やかさ。毎年60以上の団体が集い、自然と人との密接な関わりを表現する「しし踊り」や、五穀豊穣を祈る「田植踊」など、遠野の歴史ある芸能の数々が披露される。,39.33263101,141.5307853,/images/spots/Tono_Activity_TonoMatsuri.jpg,4,27,"https://www.city.tono.iwate.jp/index.cfm/25,41122,124,465,html , https://iwatetabi.jp/events/8531/"
240,伝承園まつり（飯豊神楽）,飯豊神楽は、八幡神楽の系統で、他の神楽に比べ拍子が速く荒々しい踊りで、打ち鳴らしに特徴がある。遠野郷山伏派では最多の演目を舞える。,39.35726825,141.5694357,/images/spots/Tono_Activity_DenshoenMatsuri.jpg,4,27,"https://iwatetabi.jp/events/70073/, https://www.city.tono.iwate.jp/index.cfm/48,73872,303,656,html"
241,東北馬力大会,東北内外から馬が集まり、直線150mのコースに2つの障害（1mと2.5mの山）を、最大1トンの重りを積みながら人馬一体となって超えていく迫力あるレースがみられる。,39.30591587,141.3770741,/images/spots/Tono_Activity_TohokuBarikiTaikai.jpg,4,27,"https://www.city.tono.iwate.jp/index.cfm/25,0,124,454,html , https://iwatetabi.jp/events/8256/"
242,六神石神社例大祭,六神石神社は遠野三山の一つ六角牛山の麓に鎮座し、 表筒男命・中筒男命・底筒男命（住吉三神）・息長帶比売命・大己貴命を祀っている。 例祭日は9月23日。,39.29987742,141.6122724,/images/spots/Tono_Activity_RokkoshiFestival.jpg,4,27,"https://www.pref.iwate.jp/event/moyooshi/1076866.html , https://tonojikan.jp/event/rokkoshi-festival/"
243,道の駅 遠野風の丘,遠野産品の銘菓、民芸品・工芸品、地酒・地ビール、旬の野菜・果物など遠野ならではの商品が並んでいる。,39.33087664,141.5007991,/images/spots/Tono_Activity_MichinoekiTono.jpg,4,27,"https://kazenooka.tonofurusato.jp/ , https://tonojikan.jp/tourism/tono-kazenooka/"
244,遠野ジンギスカン,遠野は、知る人ぞ知るじんぎすかんの良く食べられている町。遠野で「肉を食べる」「焼肉」と言ったらじんぎすかんのこと！遠野のじんぎすかんは焼いた肉にタレを付けて食べるタイプで、「一家に一台じんぎすかん鍋」というくらい、遠野ではいたってポピュラー。,39.33339979,141.5537133,/images/spots/Tono_Food_GenghisKhan.jpg,5,27,https://tonojikan.jp/gourmet/tono-jingisukan/
245,暮坪かぶ,地元では昔から漬物として食されてきたが、近年では蕎麦や刺身、焼肉などの薬味として利用されている。唐辛子やワサビとは異なった独特な辛味で人気が高まっている。皮をむかずにすりおろすことで、辛味や風味が高まり、美味しく食べられる。,39.33219814,141.5305242,/images/spots/Tono_Food_KuretsuboKabu.jpg,5,27,"https://iwatetabi.jp/spots/68171/ , https://www.iwate-syokuzaiclub.com/iwatenogottuo/22/index.html"
246,どぶろく,「どぶろく」は日本で最も古いお酒とされ、その起源は稲作と同じとも言われている。基本的な作り方は日本酒と同じであるが、お米、米麹、水を発酵させ、醪(もろみ)をこさずに作る。遠野にも昔からどぶろく文化が根付いており、国内のどぶろく特区の第１号の場所にもなった。,39.32944125,141.5321232,/images/spots/Tono_Food_Doburoku.jpg,5,27,https://tonojikan.jp/gourmet/doburoku/#:~:text=
247,湯川沼の浮島,標高570メートルの山中にある湯川沼には、岸の浮草が水位の変化や結氷の圧力で岸から離れてできた浮島が浮いている。ここは県の天然記念物に指定されており、ブナやミズクラに囲まれた四季折々の豊かな自然を感じることができ、夏の暮れには湖面にヒツジグサの花を楽しめる。,39.25773701,140.7588063,/images/spots/Nishiwaga_Nature_Yukawanuma.jpg,1,28,https://yamanoideyu.com/nature/article.php?p=43
248,錦秋湖,11年もの長い期間を経て昭和41年に完成した重力式アーチダム。高さは89.5m。ダム湖は「錦秋湖」と名づけられ、季節の景観と湖を横切る北上線の列車が美しい光景をみせてくれる。,39.30623041,140.8506624,/images/spots/Nishiwaga_Nature_Kinshuko.jpg,1,28,https://yamanoideyu.com/nature/article.php?p=35
249,ブナ見平,女神山（標高956m）登山道の中腹にあるブナの林。静寂の中、吹き抜ける風は身体の芯まで染み渡る心地よさ。,39.41466644,140.6671142,/images/spots/Nishiwaga_Nature_Bunamidaira.jpg,1,28,https://yamanoideyu.com/nature/article.php?p=50
250,カタクリ回廊,カタクリの花の開花時期に合わせて開催され、物産の販売などが行われる。奥羽の残雪を背景に、オオヤマザクラとカタクリの花が咲き誇る様は見事なもの。,39.50500504,140.795075,/images/spots/Nishiwaga_Nature_Katakuri.jpg,1,28,https://yamanoideyu.com/event/article.php?p=6
251,白糸の滝,女神山を源流とし、周囲には不動の滝、降る滝、女神霊泉などもある。また近くには「三滝明神」が祀られている。,39.40436116,140.6694375,/images/spots/Nishiwaga_Nature_ShiraitoFall.jpg,1,28,https://yamanoideyu.com/nature/article.php?p=41
252,ミズバショウ群生地,駒ケ岳の裾野に近い湿地にある水芭蕉の群生地。横欠地区の人たちによって木道も整備されており、水芭蕉を間近で楽しめる。5月上旬が見頃。,39.30525611,140.934353,/images/spots/Nishiwaga_Nature_Mizubasho.jpg,1,28,"https://www.tohokukanko.jp/attractions/detail_1142.html , https://yamanoideyu.com/news/article.php?p=259"
253,錦秋湖大滝,湯田ダムの土砂の堆積ペースを低減させるために作られた貯砂ダム「錦秋湖大滝」。ダムの水位が下がる夏から秋にかけて放水した水が滝のカーテンを作る。夜はレインボーにライトアップされ、幻想的な姿となる。日本夜景遺産の「ライトアップ夜景遺産」として認定された。日中は一般開放され、滝の内側を歩くことができる。,39.3119205,140.7882238,/images/spots/Nishiwaga_Nature_KinshukoOtaki.jpg,1,28,https://iwatetabi.jp/events/9137/
254,真昼大滝,奥羽山脈の分水嶺の真昼岳（まひるだけ）の真下には、大小合わせて20以上の滝がある。 県道1号線から秋田県美郷町にぬける「峰越林道」を車で25分、車窓からすぐ見ることのできる滝もあれば、本格的に装備をして沢を上ったり、山の中腹を歩かないと見ることのできない滝など様々な滝がある。,39.44436529,140.693511,/images/spots/Nishiwaga_Nature_MahiruOtake.jpg,1,28,https://www.town.nishiwaga.lg.jp/soshikikarasagasu/kankoshokoka/3/3/2/5/2/987.html
255,JR北上線,JR北上線の始発駅と終着駅は、北上駅と横手駅。どちらも地方都市のため、飲食やお買い物に不便はない。そんな気軽に乗れるのに、奥羽山脈の大自然の中を横断する正真正銘のローカル線。,39.29712429,140.8354061,/images/spots/Nishiwaga_Nature_JRKitakamisen.jpg,1,28,https://www.kitakamiline.jp/
256,湯田温泉峡（湯川温泉）,豊富な湯量と各地に湧き出す源泉。湯田温泉峡は個性豊かな温泉が楽しめるところ。その温泉は保温効果と美肌効果があるとされ、はるか昔から多くの人に愛されてきた。,39.2899205,140.7711958,/images/spots/Nishiwaga_Nature_YukawaOnsen.jpg,3,28,"http://www.fulsato.com/ , https://yamanoideyu.com/pamphlet/images/yamanoideyu.pdf"
257,湯田温泉峡（湯本温泉）,奥羽山脈の最奥部、和賀川峡谷の中に点在する湯田温泉郷。温泉郷の中心を成す温泉街は渓流沿いに大小4軒ほどの湯宿が建ち並び、北国の山の湯治場らしい静かで落ち着いた佇まい。,39.34557725,140.7718244,/images/spots/Nishiwaga_Nature_YumonoOnsen.jpg,3,28,"https://yumoto-ichijou.com/ , https://yamanoideyu.com/pamphlet/images/yamanoideyu.pdf"
258,ほっとゆだ,列車を待つ間に「ちょっとひと風呂」という人や、途中下車して、つかの間の安らぎを楽しむ旅人がいる。大浴場には信号機があり、青・黄・赤の色で列車が近づいたことを知らせてくれる。源泉かけ流しのちょっと不思議な温泉で、ほっとする時間を体験できる。,39.31471078,140.776214,/images/spots/Nishiwaga_Resort_HottoYuda.jpg,3,28,http://www.nishiwaga.biz/?page_id=352
259,砂ゆっこ,東北で最初にできた砂風呂。浴衣に着替え、温泉で約６０℃に熱した天然珪砂を女性スタッフがやさしくかけてくれる。砂の重みも心地よく、思わずため息の１５分後砂から出るとそこに待っているのは・・・経験した事のない最高の爽快感！！,39.35741611,140.7701688,/images/spots/Nishiwaga_Resort_SunaYukko.jpg,3,28,http://www.nishiwaga.biz/?page_id=354
260,西和賀雪あかり,日本有数の豪雪地帯の冬のイベントとして人気がある雪あかり。２月上旬頃になると、町のあちこちに雪国ならではの情緒あふれる雪あかりの雪像が並ぶ。思い思いに工夫を凝らした雪像の窓には、ゆらゆらとローソクの幻想的なあかりがともり、雪道を彩ります。雪深き温泉の里をつつみこむ雪あかりは感動的。,39.31442641,140.7762813,/images/spots/Nishiwaga_Activity_NishiwagaYukiakari.jpg,4,28,https://yamanoideyu.com/event/article.php?p=151
261,湯之沢裸まつり,長松垢離とりは、江戸時代中期（1700年頃）に、西和賀町長松地区で始まったとされる新春の伝統行事で、山神様の年取りにあたる旧暦の12月12日に行われている。大正の中頃までは、地区の若者が素裸で神社の森の斜面を何度も転がり雪垢離をとったが、その後は川に入り水垢離をとるように変わった。,39.36335715,140.8133907,/images/spots/Nishiwaga_Activity_YunosawaHadakamatsuri.jpg,4,28,https://iwatetabi.jp/events/141667/
262,厄払い人形,毎年1月19日に西和賀町白木野地区で行っている行事で、みんなで作ったワラ人形に地区内の疫病神を背負わせて地区の外に運び、地区境の木に結わえつけておいて、外から疫病が入るのを防ぎ、一年間の無病息災を祈る祭り。,39.30016678,140.7361137,/images/spots/Nishiwaga_Activity_Yakuharai.jpg,4,28,https://iwatetabi.jp/events/8437/
263,ほっとゆだ駅,湯田温泉峡のシンボルにもなっているＪＲ北上線ほっとゆだ駅。全国でも例を見ない温泉付きの駅舎は、木造にトンガリ屋根の時計台がついて、山あいの風景に調和した心温まる建物。,39.31476478,140.7760557,/images/spots/Nishiwaga_Food_HottoyudaSta.jpg,5,28,"https://www.nishiwaga.biz/hot-spring/%E3%81%BB%E3%81%A3%E3%81%A8%E3%82%86%E3%81%A0/ , https://www.jreast.co.jp/estation/stations/1403.html"
264,ビスケットの天ぷら(道の駅 錦秋湖),西和賀町の郷土食のひとつ。 食糧が不足していたその昔、希少なビスケットに米粉の衣でボリュームをくわえて食べたのがはじまりとされている。 おやつや農作業の一服に、冠婚葬祭での一品として食べられていた。今ではB級グルメのひとつとして、グルメイベントへの出店依頼やテレビ紹介などで注目されている。,39.30039066,140.8754925,/images/spots/Nishiwaga_Food_BiscuitTenpura.jpg,5,28,"https://www.town.nishiwaga.lg.jp/soshikikarasagasu/nourin/2/1/1_2/956.html, https://www.nisshin-oillio.com/report/kikou/vol30.html"
265,大堤公演の白鳥,大堤公園の西、新堤は県内随一の白鳥飛来地で、1000羽を超える白鳥が越冬し、オオハクチョウに混じって、国内への飛来は珍しいアメリカコハクチョウも毎年飛来し、北上市民に冬の訪れを告げる。,39.26169405,141.0910983,/images/spots/Kitakami_Nature_Hakucho.jpg,1,29,"39.21408380996524, 140.8879562940046"
266,ブナの霧氷（夏油高原）,上質なパウダースノーと日本屈指の積雪量を誇る「豪雪」の夏油高原スキー場。ウィンターシーズンは天然の雪で11月下旬から5月上旬まで滑走が可能。パウダーリセット率と積雪量の高さが魅力のツリーランコースや、春にはコブ斜面も楽しむことができる。,39.2148864,140.8875146,/images/spots/Kitakami_Nature_Muhyo.jpg,1,29,https://www.city.kitakami.iwate.jp/life/kitakamishinoshokai/kitakamishinokanko/4/index.html
267,北上展勝地さくらまつり,北上展勝地は、全国の桜名所百選に選定され、青森県弘前市・秋田県角館町と並び「みちのく三大桜名所」となっている。北上川沿いの約２ｋｍの桜並木は、桜のトンネルとなり、訪れる人々を優しく迎える。また、夜には、ライトアップされ、幻想的な雰囲気が醸し出される。まつり期間中は並木間を観光馬車、川面には観光遊覧船と渡し舟が往来し、３００匹の鯉のぼりが空を泳ぐ。,39.27537429,141.1275064,/images/spots/Kitakami_Nature_KitakamiSakuraMatsuri.jpg,1,29,"https://kitakami-kanko.jp/sakura/ , https://iwatetabi.jp/events/8399/"
268,展勝地,日本さくら名所100選にも選ばれたことがある東北有数のさくらの名所で、北上川左岸に約2kmの桜並木があり、桜のシーズンには多くの人でにぎわう。また、5月に入ると紅白のツツジが咲きはじめる。,39.27507151,141.1266707,/images/spots/Kitakami_Nature_Tenshochi.jpg,1,29,https://kitakami-kanko.jp/tourism/tensyochi/
269,夏油温泉,８５０年前から湧き続けている源泉とブナ原生林と夏油渓谷のせせらぎに包まれた、素朴で趣深い温泉宿。,39.2126503,140.8883717,/images/spots/Kitakami_Resort_GetoOnsen.jpg,3,29,http://www.youihome.co.jp/geto
270,鬼剣舞,北上市の周辺に伝わる「鬼剣舞」は、正式には「念仏剣舞」の一つ。威嚇的な鬼のような面（仏の化身）を付け勇壮に踊るところから「鬼剣舞」と呼ばれて親しまれている。,39.28756803,141.1052927,/images/spots/Kitakami_History_Onikenbai.jpg,2,29,http://onikenbai.shop-mj.info/
271,樺山遺跡,昭和26年の発掘調査で発見された遺跡は、立石（りっせき）をともなう石組の配石遺構（ストーンサークル）が注目を集め、国の指定史跡になっている。,39.24122871,141.1331209,/images/spots/Kitakami_History_KabayamaIseki.jpg,2,29,"https://bunka.nii.ac.jp/heritages/detail/137634 , https://kitakami-kanko.jp/location/kabayama-iseki/"
272,みちのく民族村,北上川流域とその周辺の茅葺民家を移築復元した東北有数の野外博物館。山間約7ヘクタールの敷地に、南部曲り家などの茅葺民家10棟のほか、大正建築の佇まいを残した旧黒沢尻高等女学校の校舎など18棟、合計28棟が点在している。,39.27073345,141.1297124,/images/spots/Kitakami_History_MichinokuMinokumura.jpg,2,29,http://michinoku-fv.net/
273,みちのく芸能まつり,北上市は民俗芸能の宝庫と言われ、伝承活動をしている民俗芸能団体数は日本有数。８月の 第一金曜から三日間開催される「北上・みちのく芸能まつり」では、街のあちこちで１００を越す民俗芸能が披露される。,39.28331779,141.115048,/images/spots/Kitakami_Activity_MichinokuGeinoMatsuri.jpg,4,29,https://geinoumatsuri.com/
274,北上コロッケ（四季乃味 枕流亭）,目前に流れる雄大な北上川の景色と、ゆったりお料理が楽しめるお店。また、1年を通じて四季の移り変わりを楽しむことができる。掘りごたつ式のテーブル席では、足を降ろしてゆっくりくつろげる。,39.28715493,141.1308702,/images/spots/Kitakami_Food_KitakamiKorokke.jpg,5,29,https://chinryutei.jp/
275,黒沢川せせらぎ公演,金ケ崎町の黒沢川に沿って広がる『黒沢川せせらぎ公園』は、川、池、噴水があり水辺で遊ぶことができる。芝生広場も広く、思いっきり遊べるファミリーに人気の公園。,39.18556002,141.10184,/images/spots/Kanegasaki_Nature_SeseragiPark.jpg,1,30,http://www.town.kanegasaki.iwate.jp/map/index_bunya@shisetsu@kanko_bunka_sports.html
276,焼石岳,"標高1,548メートル。奥羽山脈中部に属し、牛形山、駒ヶ岳などからなる焼石連峰の主峰で、栗駒国定公園の一部。日本二百名山の一つである。第四紀に噴出形成した火山で、周囲には規模の小さい火山が集まっている。尚、現在は特にこれといった活動はない。山体が輝石安山岩などから構成され、山頂周辺に焼けたような石が見られることが名称の由来とされる。",39.16580251,140.8293181,/images/spots/Oshu_Nature_MtYakeishi.jpg,1,31,"http://www.yakeishi.com/ , http://www.yakeishi.com/higashinaruse.html"
277,星座の森（種山高原）,「種山高原」は岩手県奥州市・遠野市・住田町にまたがるなだらかな高原。種山高原のほぼ中央に整備された「星座の森」はカーサイトやコテージがあるアウトドア施設。バーベキューセットの貸し出しのほか、お肉の注文もできて便利。６月中旬レンゲツツジの群生が見事。,39.19529919,141.3864793,/images/spots/Oshu_Nature_StarForest.jpg,1,31,"https://www.esashi-iwate.gr.jp/seiza/ , https://iwatetabi.jp/spots/68340/"
278,種山高原物見山,宮沢賢治の詩にも出てくるように詩情あふれる高原で、県立青少年の家やキャンプ場、散策路もある。岩手県立種山牧野には牛、馬が放牧されて、牧歌的な風景を楽しめる。,39.20201661,141.4015705,/images/spots/Oshu_Nature_MonomiYama.jpg,1,31,https://www.yamakei-online.com/yamanavi/yama.php?yama_id=151
279,種山ヶ原,岩手県奥州市、気仙郡住田町、遠野市にまたがる物見山（種山）を頂点とした標高600～870mに位置した高原地帯。緩やかな稜線の準平原地形と冷涼な気候から、藩政時代から馬の放牧地として利用されてきた。,39.19638663,141.3910042,/images/spots/Oshu_Nature_TaneyamaGahara.jpg,1,31,https://www.city.oshu.iwate.jp/kanko/osusume/4/2/1003.html
280,焼石連峰,"標高1,000メートル級の14の山々が連なる焼石連峰は、渓谷や湖沼・滝などバラエティーに富んだ景観が魅力。また、山ふところを縫うように走る国道397号線は焼石連峰ビーチラインと呼ばれ、ブナ原生林の樹海が広がっている。",39.14977761,140.8808324,/images/spots/Oshu_Nature_YakeishiRenpo.jpg,1,31,https://www.tohokukanko.jp/attractions/detail_1409.html
281,衣の滝,高さ１５メートル・幅１４メートルの滝で、飛瀑がまわりの景色に映えて美しい。滝壷のそばの岩穴は慈覚大師が衣を干したという伝説に名高い「藍壷（あいつぼ）」がある。,39.09887485,140.9361764,/images/spots/Oshu_Nature_KoromonoTaki.jpg,1,31,"https://www.city.oshu.iwate.jp/kanko/osusume/4/2/3170.html , https://iwatetabi.jp/spots/4173/"
282,菊田一夫記念館,記念館として使われている赤煉瓦造りの2棟の蔵は小原善次郎氏により、明治時代後期に建造された。東蔵は「菊田一夫記念館」として活用し、菊田が家族と共に江刺に疎開しその宿から見えた風景が明治記念館（当時岩谷堂町役場）のとんがり帽子の赤い屋根だった。「鐘の鳴る丘」の資料を中心に彼の生涯と作品資料の展示をしている。,39.19058724,141.1770708,/images/spots/Oshu_History_KikutaKazuoKinenkan.jpg,2,31,"https://iwatetabi.jp/spots/4294/ , https://www.city.oshu.iwate.jp/kanko/osusume/4/2/1003.html"
283,黒石寺,黒石寺は、天平元年（729）行基菩薩の開山で、東光山薬師寺と称したが、延暦年間の蝦夷征伐の戦火にあい寺は焼失した。大同2年（807）飛騨（今の岐阜県）の工匠が方七間の薬師堂を再建し、嘉祥2年（849）第3代天台座主慈覚大師円仁が復興し妙見山黒石寺と改名した、天台宗の古刹である。,39.08470029,141.2065279,/images/spots/Oshu_History_Kokusekiji.jpg,2,31,https://www.kokusekiji.jp/
284,高野長英記念館,幕末の先覚者、高野長英（1804～1850）のメモリアルホール。水沢公園の一角にあり、館内には肖像画や書簡類が展示されている。なかでも長英が獄中でしたためたもので一見すると白紙に見える「角筆詩文」には脱獄の意志を密かに表していると思われる内容が記されており貴重な資料となっている。館内の資料の多くが国の重要文化財に指定されています。,39.13625099,141.1410199,/images/spots/Oshu_Hitory_TakanoChoeiMuseum.jpg,2,31,https://www.city.oshu.iwate.jp/choei/index.html
285,牛の博物館,ウシは人類に食糧、労働、衣料、肥料それに娯楽など、かずかずの役立つものを与え、大きな富をもたらした。ウシの世界について生物学と人文科学の両面から紹介する資料館。,39.02701835,141.1241025,/images/spots/Oshu_History_UsiMuseum.jpg,2,31,"https://iwatetabi.jp/spots/5499/ , https://www.city.oshu.iwate.jp/section/ushi/"
286,奥州市武家住宅資料館,江戸末期の内田家旧宅、後藤新平旧宅の武家屋敷と武家住宅資料センターの施設があり、センターでは、城下町水沢をテーマに、江戸時代の水沢城の町並みと現在を一目で見られる地図をはじめ、鎧や火縄銃、槍などの武具や武器のほか帳場格子や算盤などの資料を展示している。市内観光の起点となる施設で無料休憩所となっている。,39.14309916,141.1390715,/images/spots/Oshu_History_OshuBukeJutakuSiryokan.jpg,2,31,"https://iwatetabi.jp/spots/4316/ , https://www.city.oshu.iwate.jp/samurai/index.html"
287,正法寺,奥の正法寺は1348年の開創以来、道元禪師の厳しい禪風を守りながらも、瑩山禪師、峨山禪師より引き継いだ「師檀和合」を説き、寺院と檀那との結びつきを大切にしてきた。その開かれた門風は僧俗を問わず多くの人々を育み輩出し、東北地方の宗教、文化の発展において大きな役割を果たしてきた。,39.38601442,141.3196574,/images/spots/Oshu_History_Shoboji.jpg,2,31,https://shoboji.net/
288,江刺藤原の里 政庁,正殿を中心に左右対称の建物が配置されている。ここでは政治や重要な儀式が執り行われていた。,39.1952484,141.1887052,/images/spots/Oshu_History_Seicho.jpg,2,31,https://www.fujiwaranosato.com/facility/seicho/
289,江刺藤原の里,奥州藤原氏の軌跡を辿りみちのくの歴史と文化が体験できる、約20ヘクタールの広大な歴史テーマパーク。厳密な時代考証に基づき、東北古代の城柵から藤原清衡の居館・豊田館をはじめ奥州藤原氏の政庁、秀衡の居館・伽羅御所、黄金文化の象徴である金色堂などを本格再現。,39.1969763,141.1893738,/images/spots/Oshu_History_Seicho.jpg,2,31,https://www.fujiwaranosato.com/
290,江刺藤原の里 伽羅御所,南向きの主屋の寝殿を中心に東・西・北の部屋が廊下でつながれ、釣殿と呼ばれる離れの建物がつくられている。屋根は檜の皮を重ねた「檜皮葺(ひわだぶき)」をイメージし、優美な反りが特徴。,39.19531406,141.1883518,/images/spots/Oshu_History_CharanoGosho.jpg,2,31,https://www.iwate-maibun.jp/excavations2013/292kyaranogosyo
291,日高火防祭,町組ごとに飾りたてられたはやし屋台が古趣あふれる音曲にあわせて街を練り歩く。祭りの興奮が最高潮に達するのは、何といっても「揃い打ち」。ぼんぼりの灯りの中、各町組の屋台が競って華麗なおはやしを披露する祭りのクライマックス。令和5年に岩手県指定無形民俗文化財に指定された。,39.1398807,141.1447457,/images/spots/Oshu_History_HitakaHihubuseMatsuri.jpg,2,31,"https://iwatetabi.jp/events/7737/ , https://www.city.oshu.iwate.jp/kanko/event/1/433.html"
292,千養寺(黒田助千手観音),作者及び建立年代は明らかではないが、建築細部にみられる木鼻類の絵様、台輪端部の繰り形の手法、その他、肘木や内部大瓶束の形状、また、延宝5年（1679）、同8年の絵馬の存在からして、寺伝に言う延宝5年の建立とみられる。架構も単純明解であり、禅宗様式を主とした技法も堅実で、細部意匠にもみるべきものがある。保存状態も良好で、本県における江戸初期の本格的三間堂遺構として貴重である。,39.12816053,141.2097485,/images/spots/Oshu_History_Senyoji.jpg,2,31,http://www.bunka.pref.iwate.jp/archive/hist192
293,白鳥舘遺跡,遺跡には、堀や曲輪の跡が残り、中世城館の姿をほぼ原形に近い形で見ることが出来る。北上川に周囲を180度以上囲まれる天然の要害であり、10世紀から16世紀まで北上川交通の要衝地として利用されてきた。雄大な北上川に守られる景観は、まさに絶景。,39.02529002,141.1348818,/images/spots/Oshu_History_ShirotoritateIseki.jpg,2,31,"https://iwatetabi.jp/spots/5727/ , https://www.sekaiisan.pref.iwate.jp/know/cheritage/shirotoritate"
294,長者ヶ原廃寺跡,昭和33年（1958）の発掘調査で、寺院風の壮大な建物跡が確認された。出土した土器などから推定して、平泉前史の重要な寺院跡と考えられている。一辺約100mの土塁又は築地塀に囲まれた遺跡であり、中軸線上に建物と門を配すなど非常に古代的な様相をもっている。,39.01296494,141.0967443,/images/spots/Oshu_History_ChojagaharaHaiji.jpg,2,31,"https://www.city.oshu.iwate.jp/kanko/osusume/7/4154.html , https://www.sekaiisan.pref.iwate.jp/know/cheritage/chojagahara"
295,奥州水沢のくくり雛まつり,水沢地方に古くから伝わり伝統文化でもある「くくり雛」を3月の「ひな祭」の時期に合わせて公開展示します。「くくり雛」という呼び名は水沢地方独特の呼び名で、全国的には「押し絵」と呼ばれるもの。方言で綿を布でくるむことを「くくる」ということから「くくり雛」と呼ぶようになった。くくり雛の起源は江戸中期にさかのぼる。内裏雛のほか歴史上の人物や浮世絵、風俗など様々な種類があり、現在も水沢の旧家に数点が現存しているほか「水沢くくり雛保存会」を中心にその継承がはかられている。,39.14082953,141.1411946,/images/spots/Oshu_Activity_KukuriHinamatsuri.jpg,4,31,"https://iwatetabi.jp/events/8354/ , https://www.city.oshu.iwate.jp/kanko/event/1/480.html#:~:text="
296,八つ鹿踊り,江刺の鹿踊りは太鼓踊系の流れをくんでいる。太鼓系鹿踊りの特徴は、長い腰指し（ささら）を付け、締め太鼓をダイナミックに打ち鳴らし、自らが唱える念仏調の踊り歌にのって勇壮に舞うというものだ。八頭立てで群れをつくり踊ることから「八つ鹿踊り」とも呼ばれている。,39.19653955,141.1891367,/images/spots/Oshu_Activity_YatsuShishiodori.jpg,4,31,"http://www.bunka.pref.iwate.jp/archive/ent27 , https://bunkashisan.ne.jp/bunkashisan/03_iwate/6984.html"
297,前沢牛(牛匠おがた),岩手県が誇るブランド牛「前沢牛」。 最高級の前沢牛の証であるその霜降りは、 しっかりとした甘みとその濃厚な旨味が特徴の一度は食べたい逸品。,39.04970059,141.130094,/images/spots/Oshu_Food_MaesawaGyu.jpg,5,31,"https://www.maesawagyu.net/ , 39.04963818480929, 141.1301073477246"
298,江刺リンゴ,江刺のりんごは「わい化栽培」で日光を十分に浴びて育てられ、収穫をギリギリまで遅らせることで、高い糖度と品質を持つ。天皇陛下にも献上される美味しいりんご。,39.18011441,141.1843793,/images/spots/Oshu_Food_OshuApple.jpg,5,31,"https://www.jaesashi.or.jp/brand/esashi-ringo/ , https://www.city.oshu.iwate.jp/kanko/osusume/3/4/3301.html"
299,江刺鹿踊 百鹿大群舞,江刺地域内各団体の踊手総勢100人が、流派を超えダイナミックに舞う「百鹿大群舞」。通りいっぱいに広がりながら一斉に太鼓を打ち鳴らし踊る様は、まさに圧巻。,39.19064495,141.1761483,/images/spots/Oshu_Activity_HyakuShikaMai.jpg,4,31,"https://www.city.oshu.iwate.jp/kanko/event/1/15746.html , https://www.city.oshu.iwate.jp/web_museum/oshirase/1/1380.html"
300,旧観自在王院庭園,観自在王院跡は奥州藤原氏二代基衡の妻が造営した寺院の遺跡。大小二棟の阿弥陀堂跡の前面に舞鶴池を中心にした浄土庭園が広がり、境内の背後には金鶏山が位置している。近世までに往時の堂塔をすべて失い、庭園も荒廃して後には水田化したが、遺跡発掘調査の成果に基づいて伽藍遺構と庭園の修復・整備が行われ、今日の姿になった。,38.9886826,141.1104876,/images/spots/Hiraizumi_Nature_OldKanjizaioinGarden.jpg,1,32,"https://bunka.nii.ac.jp/heritages/detail/163118 , https://www.town.hiraizumi.iwate.jp/heritage/asset/kanji.html"
301,毛越寺,毛越寺は慈覚大師円仁が開山し、藤原氏二代基衡（もとひら）から三代秀衡（ひでひら）の時代に多くの伽藍が造営された。往時には堂塔40僧坊500を数え、中尊寺をしのぐほどの規模と華麗さであったといわれている。,38.98736256,141.1075153,/images/spots/Hiraizumi_Nature_Motsuji.jpg,1,32,"https://www.motsuji.or.jp/ , https://www5.pref.iwate.jp/~hp0252/hiraizumi/motsuji.html#:~:text="
302,無量光院跡,奥州藤原氏三代秀衡によって造営された寺院の遺跡。宇治平等院鳳凰堂を模して建立された阿弥陀堂と、その周囲を取り巻く池を中心に伽藍が構成されている。なお、阿弥陀堂の背後（西方）には金鶏山を中央に、なだらかな山並みが連なっている。,38.99303909,141.1157206,/images/spots/Hiraizumi_Nature_MuryoKoinato.jpg,1,32,"https://hiraizumi.or.jp/archive/sightseeing/muryo.html , https://www.town.hiraizumi.iwate.jp/heritage/asset/muryou.html"
303,金鶏山,中尊寺と毛越寺のほぼ中間に位置し、平泉を守るため雌雄一対の黄金の鶏を埋めたという伝説が残っている歴代の奥州藤原氏が山頂に経塚を築いた信仰の山で、平泉のまちづくりの基準となった。松尾芭蕉も平泉を訪れた際、「金鶏山のみ形をのこす」とこの山の印象を記している。,38.99581078,141.1095645,/images/spots/Hiraizumi_Nature_KinkeiSan.jpg,1,32,"https://www.sekaiisan.pref.iwate.jp/know/cheritage/kinkeisan, https://www.town.hiraizumi.iwate.jp/heritage/asset/kinkei.html"
304,平泉文化遺産センター,世界遺産に登録された「平泉の文化遺産」、その概要をわかりやすく紹介するガイダンス施設、町内観光のビジターセンターとして、平泉の歴史文化を幅広く紹介している。,38.993029,141.1111853,/images/spots/Hiiraizumi_History_HiraizumiCultureCenter.jpg,2,32,"https://www.town.hiraizumi.iwate.jp/index.cfm/26,1040,128,277,html , https://hiraizumi.or.jp/archive/sightseeing/bunka.html"
305,柳之御所遺跡,高館の麓から北上川沿いに段丘が広がるこの一帯は、古来、藤原清衡・基衡の屋敷跡と伝えられてきた。12世紀の平泉遺跡群の中でもずば抜けた質と量の遺構、遺物の発見が相次いだことから、遺跡は、『吾妻鏡』に見える平泉館（政庁）に該当する可能性が高いと評価されている。,38.99361634,141.1195098,/images/spots/Hiraizumi_Nature_YanaginoGohoIseki.jpg,1,32,https://www.sekaiisan.pref.iwate.jp/know/cheritage/yanagigosyo
306,束稲山,束稲山を京の東山になぞらえ、全山に桜を植えたといわれている。全盛時代の桜はどんなにか美しかったことだろう。往時の華やかなりし様子が偲ばれる。歌聖西行が束稲山の山桜の盛りを歌に詠んでいる。,39.01371988,141.1840986,/images/spots/Hiraizumi_Nature_MtTabashine.jpg,1,32,"https://www.hiraizumi-yukari.com/search/data.php?p=23 , https://www.pref.iwate.jp/kennan/nousei/1073291/index.html"
307,浄土庭園大泉ヶ池,大泉が池を中心とする「毛越寺浄土庭園」は、国より特別史跡、特別名勝の二重指定を受けている。毛越寺浄土庭園は塔山を背景に、大泉が池の周囲には州浜（すはま）や築山（つきやま）、出島（でじま）、飛島（とびじま）などの石組みが配置され、自然の景観を取り入れた作庭技法が随所に示されている。,38.98751788,141.1084397,/images/spots/Hiraizumi_Nature_OizumigaIke.jpg,1,32,https://iwatetabi.jp/spots/5412/
308,高館義経堂,高館は北上川に面した丘陵で、判官館（はんがんだて、ほうがんだて）とも呼ばれている。現在では、その半ばを北上川に浸蝕され狭くなっているが、この一帯は奥州藤原氏初代清衡公の時代から、要害地とされていた。兄・頼朝に追われ、少年期を過ごした平泉に再び落ち延びた源義経公は、藤原氏三代秀衡公の庇護のもと、この高館に居館を与えられた。地元で判官館と呼ばれているのは、義経が判官の位にあったことに由来する。,38.99740166,141.1134739,/images/spots/Hiraizumi_History_Gikeido.jpg,2,32,"https://www.motsuji.or.jp/gikeido/ , https://hiraizumi.or.jp/archive/sightseeing/gikeido.html"
309,毛越寺 常行堂,堂は宝形造りで須弥壇中央に本尊・宝冠の阿弥陀如来、両側に四菩薩、奥殿には秘仏としてあがめられている摩多羅神（またらじん）がまつられている。摩多羅神は慈覚大師が中国から帰国する船の中で感得した神で、阿弥陀如来の化身といわれている。奥殿の扉はふだんは固く閉ざされ、33年に一度、一般に向け開帳される。祭礼の正月20日は、古式の修法と法楽としての延年の舞が奉納される。,38.98887111,141.1088008,/images/spots/Hiraizumi_History_Jogyodo.jpg,2,32,"https://iwatetabi.jp/spots/4662/ , https://www.motsuji.or.jp/about/ennen.html"
310,春の藤原まつり,源義経公東下り絵巻は、藤原氏三代の栄華を今に再現した全国的にも知られた祭事。なかでも、３日に開催される「源義経公東下り行列」は、義経が兄頼朝より逃れて平泉に着いたとき、藤原秀衡公が喜んで自ら出迎え、民衆も歓喜したという情景を再現している。義経公役には毎年、人気の芸能人が扮し、沿道を埋める観光客から大きな歓声が飛び交う。そのほかにも、稚児行列・郷土芸能・弁慶力餅競技大会など、さまざまな催しが行なわれる。,38.99854872,141.1079115,/images/spots/Hiraizumi_Activity_FujiwaraMatsuri.jpg,4,32,"https://hiraizumi.or.jp/event/haru_fuji.html , https://iwatetabi.jp/events/7861/"
311,毛越寺二十日夜祭,1月14日から20日にかけて「摩多羅神祭」が毛越寺常行堂にて執り行われる。最終日1月20日に行なわれる「常行堂二十日夜祭（じょうぎょうどうはつかやさい）」は、約850年前に始まったと伝えられている。法要の後に常行堂内で奉納される「延年の舞」は、唐拍子・田楽・花折・若女・老女など、平安時代の数多くの舞を昔のままの姿で今に伝えている。延年の舞は国指定の重要無形民俗文化財になっている。,38.98701489,141.1080864,/images/spots/Hiraizumi_Activity_MoutsujiHatukasai.jpg,4,32,"https://hiraizumi.or.jp/event/hatsuka.html , https://iwatetabi.jp/events/8277/"
312,達谷窟,延暦20年（801）坂上田村麻呂が蝦夷討伐の戦勝記念と仏の加護への感謝を込めて造営したと伝えられている。京都の鞍馬寺から毘沙門天を勧請し、百八体の毘沙門天を祀ったといわれている。当時、達谷窟には悪路王という蝦夷の首領が住んでおり、田村麻呂に征伐されたという伝説が残っている。この伝説は田村物語として中世文学に大きな影響を与えた。源頼朝も、鎌倉への帰路、参拝している。,38.96836718,141.058327,/images/spots/Hiraizumi_History_TakkokunoIwaya.jpg,2,32,"https://iwayabetto.com/ , https://hiraizumi.or.jp/archive/sightseeing/takkoku.html"
313,毛越寺 開山堂,開山堂は、第三代天台座主、慈覚大師（円仁）（794-864年）を祀るお堂。円仁は、9世紀に毛越寺を開いたとされている。開山堂には、2体の両界大日如来と、平安時代（794-1185年）に平泉を支配した藤原家氏3代、清衡、基衡、秀衡の画像が納められている。開山堂は1923年に、高く盛った基礎の上に、日本の古い建築様式である校倉造風で建てられた。,38.98808841,141.1063467,/images/spots/Hiraizumi_History_KaisanDou.jpg,2,32,"https://www.motsuji.or.jp/keidai/index.html , https://www.yoritomo-japan.com/hiraizumi/motuji/motuji-kaisando.html"
314,悠久の湯,奥州藤原文化の華ひらいた地、平泉の新たな出湯であり、訪れる人々の健康と延年(長寿)さらには、悠久の歳月にわたり、安らぎの場となることを願い命名されたもの。,38.99113138,141.1107478,/images/genres/Onsen.jpg,3,32,"https://www.town.hiraizumi.iwate.jp/index.cfm/25,0,125,271,html , https://iwatetabi.jp/spots/6073/"
315,猊鼻渓,日本百景のひとつ。砂鉄川が石灰岩を侵食してできた約2kmの渓谷で、約100mの断崖が両岸にそびえている。流れは静かで、舟下りでは船頭が唄う「げいび追分」が響きわたる。,38.98960664,141.2554462,/images/spots/Ichinoseki_Nature_Geibikei.jpg,1,33,"http://www.geibikei.co.jp/ , https://www.ichitabi.jp/feature/special/geibi/index.html"
316,厳美渓,名勝・天然記念物。栗駒山を源に流れる磐井川が巨岩を侵食し、おう穴・滝・深淵と表情を変え２ｋｍにわたって渓谷美を見せる。遊歩道を散策すると、つり橋から上流の荒々しい流れと下流のゆったりとした淵の対照的な景色が見られる。春は満開の桜と雪解け水が流れる渓谷美を眺め、夏には涼しげな渓流のせせらぎを聞き、秋には色づく山々の紅葉、冬には水墨画を思わせる景色が広がり、厳美渓は四季折々それぞれの風情が楽しめる。,38.94428809,141.0476922,/images/spots/Ichinoseki_Nature_Ganbikei.jpg,1,33,"https://www.ichitabi.jp/spot/data.php?no=8 , https://iwatetabi.jp/spots/4017/"
317,みちのおくあじさい園,６月下旬から約１ヶ月間、杉山の小路は色鮮やかな「あじさい」の花に彩られる。東京ドーム３個分以上の広大な杉山に約４００種４万株のあじさいが植栽されていて次々と咲き誇ります。休憩所も整備され、ゆったりと自然を満喫できる。,38.98086692,141.2129566,/images/spots/Ichinoseki_Nature_AjisaiGarden.jpg,1,33,"https://www.ichitabi.jp/spot/data.php?p=36 , https://iwatetabi.jp/spots/4731/"
318,栗駒山,"栗駒国定公園の主峰栗駒山は、岩手県では須川岳とも呼ばれる標高1,626mの山。岩手、秋田、宮城の各県から登山コースが通じており、岩手県側は須川温泉登山口から登る。5月中旬の山開きには残雪を踏みしめての登山、6～7月は可憐な高山植物、9月末からは山が燃えるかのような紅葉と11月の閉山まで四季を通じて楽しめる。登山コースには難所は無く、中高年の方でも安心して登れる。",38.96177674,140.7879797,/images/spots/Ichinoseki_Nature_MtKurikoma.jpg,1,33,"https://www.tohokukanko.jp/attractions/detail_1441.html , https://visit-kurihara.travel/spots/106"
319,館ヶ森アーク牧場(Ark館ヶ森),Ark館ヶ森の場内には、チューリップやラベンダー、ローズなど四季折々の花が咲ききそうフラワーガーデンがあり、ゆっくりと散策しながら花やハーブの香りを楽しめる。広大な敷地には20種類以上の動物たちが、できるだけ自然に近い形で暮らせるように飼育しており、えさやりやたまごひろいなどの体験などを通して動物たちと触れ合うこともできる。オーガニックレストランとして東北地方で初認証されたレストランでは、ビュッフェスタイルで楽しめる。,38.81771202,141.2740407,/images/spots/Ichinoseki_Nature_ArkKurikoma.jpg,1,33,https://www.arkfarm.co.jp/
320,須川高原(須川高原温泉),岩手・宮城・秋田３県にまたがる宿にちなんだ食事を「味わう最高」。湯川沿いに登るトレッキングや登山、そして蒸し風呂や明礬みょうばん・緑礬泉りょくばんせんの４つの湯に「触れる最高」。須川の大自然が五感すべてに語りかけ、そのすべてを満たしてくれる先にある「最高の笑顔」。それこそが「最高」の須川高原温泉。,38.98149211,140.7702696,/images/spots/Ichinoseki_Nature_SukawaKogen.jpg,1,33,http://sukawaonsen.jp/
321,金山棚田稲刈り,岩手県一関市舞川地区にある約50枚の棚田。100年以上前の開梱当時の形を残し、個性豊かな田んぼが並ぶ景色は、日本の原風景そのもの。1つ1つが8畳一間ほどの小さな田んぼのために機械が使えず、昔ながらの手作業で景観維持と稲作が行われてきたことから、日経新聞社が選ぶ「コメ作りが生んだ棚田10選」に選ばれている。,38.98313571,141.188279,/images/spots/Ichinoseki_Nature_KanayamaTanada.jpg,1,33,https://kanayama-tanada-playfarm.com/
322,祭畤被災地 展望の丘,岩手・宮城内陸地震災害の教訓を忘れないため整備された公園。展望の丘と隣接する木道では、落下した祭畤大橋や震災当時のままの道路などの災害状況を見学できる。,39.01600516,140.8787537,/images/spots/Ichinoseki_Nature_MatsurubeOhashi.jpg,1,33,https://www.ichitabi.jp/spot/data.php?p=119
323,熊谷美術館,故熊谷登久平画伯（元独立美術協会会員）の生誕百年（１９０１年生）没後３３年（１９６８年）を期し、同画伯の画業を中心として、その一端を「千厩町」及び地域の皆々様に見てもらい、「町おこし」の一環、地域芸術文化の振興に寄与するために、開設したもの。,38.91921748,141.3350245,/images/spots/Ichinoseki_History_KumagaiArtMuseum.jpg,2,33,"https://iwatetabi.jp/spots/4519/ , https://www.asoview.com/spot/03423cc3302010665/"
324,石と賢治のミュージアム,晩年期の宮沢賢治が東山町を訪れるきっかけとなった「旧東北砕石工場」や縁のある資料の展示やイベントが開催される「太陽と風の家」、地域の人たちが作るお茶菓子で一服できるコーナー「ひまわり」がある。,38.9788322,141.2383971,/images/spots/Ichinoseki_History_StoneKenjiMuseum.jpg,2,33,"https://www.ichitabi.jp/spot/data.php?p=4 , http://www.city.ichinoseki.iwate.jp/index.cfm/6,0,149,html"
325,旧沼田家武家屋敷,旧沼田家武家住宅は江戸時代後期に一関藩家老職を勤めた沼田家の旧宅です。約300年の歴史があり付近を流れる磐井川のたび重なる水害にも倒壊することなく今日に至る。一関市では平成12年から建物修復と環境整備を行い上級武家遺構としては県内でも屈指であるこの住宅を平成15年4月より一般に公開致している。,38.9292552,141.1320777,/images/spots/Ichinoseki_History_NumatakeBukeyashiki.jpg,2,33,"https://www.ichitabi.jp/spot/data.php?p=38 , https://iwatetabi.jp/spots/5099/"
326,秀衡塗(秀衡塗工房 丸三漆器),奥州藤原文化を背景に生まれた秀衡塗は、創業百余年の歴史を誇る丸三漆器の名工に受け継がれている。朱と黒と金の基調の中に配された春秋草花紋とふっくらと手のひらになじんでくる雅趣に富む形は、伝統の中にも現代的なものを感じさせ、またその堅牢さは日継常の生活にも溶け込み、使う人の心を和ませてくれる。,39.0034284,141.3278678,/images/spots/Ichinoseki_History_HidehiraNuri.jpg,2,33,"https://hidehiranuri.jp/ , https://www.tohoku.meti.go.jp/s_densan/iwate_03.html"
327,一関市博物館,厳美渓から約0.4kmに位置し、1階の広々とした吹き抜けのエントランスホールでは、博物館主催の行事に対応している。2階の展示室では厳美渓遺跡の床下展示、一関地方の縄文、弥生の人々の暮らしから度重なる水害から懸命に立ち上がってきた現代までの通史展示に続き、「舞草刀と刀剣」「玄沢と蘭学」「文彦と言海」「一関と和算」の4つのテーマ展示があり、その中で映像やパソコンゲームも楽しめる。,38.94684594,141.0516887,/images/spots/Ichinoseki_History_IchinosekiMuseum.jpg,2,33,"https://www.city.ichinoseki.iwate.jp/museum/ , https://www.ichitabi.jp/spot/data.php?p=11"
328,骨寺荘園遺跡,岩手県一関市厳美町本寺地区は、その昔「骨寺村」と呼ばれており、重要文化財「陸奥国骨寺絵図」にほぼ近い形で、現在も中世の荘園の面影をとどめている。,38.97244008,140.9597955,/images/spots/Ichinoseki_History_HonederamuraShoen.jpg,2,33,"https://www.ichitabi.jp/spot/data.php?p=20 , https://www.honedera.jp/"
329,須川温泉,"岩手、宮城、秋田の3県にまたがる栗駒山の中腹にあるPH2.2強酸性の温泉。その希少な泉質と共に平安時代前期の昔から湯治場として知られるようになり、1,100年以上にわたって、みちのくの秘湯として多く方々に愛されてきた。",38.98013698,140.7702366,/images/spots/Ichinoseki_Resort_SukawaOnsen.jpg,3,33,"http://sukawaonsen.jp/ , https://www.ichitabi.jp/stay/onsen/sukawa.html"
330,須川温泉 足湯,須川高原温泉の無料で自由に入れる足湯。熱いお湯で癒されながら紅葉などの景色を楽しむことができる。,38.97970425,140.7701858,/images/spots/Ichinoseki_Resort_SukawaOnsenAshiyu.jpg,3,33,https://yuru-to.net/detail.php?oid=34806
331,おらが自慢のでっかい花火大会,"「ちゃっこい村のでっかい花火大会」として親しまれてきた花火大会。県内で一番大きい「2尺玉」や大迫力のスターマインなど、大小10,000発の花火が夏の夜空を彩る。中でも、メーンスタンド前の北上川で華開く水中花火は一見の価値あり。半球状の花火が目の前で広がり、川面を照らす。",38.89863677,141.2685035,/images/spots/Ichinoseki_Activity_KawasakiNatsumatsuriHanabi.jpg,4,33,"https://iwatetabi.jp/events/7530/ , https://www.ichitabi.jp/event/data.php?p=229"
332,室根神社特別大祭,室根神社特別大祭とは、岩手県一関市室根町を中心とした地域に1300年以上前から伝わる祭り。蝦夷（えみし）征伐のために建てられた室根神社。坂上田村麻呂や源義経・弁慶も参拝したほか、伊達藩の戦勝三大祈願所であったとされる。この祭りは、「本宮」、「新宮」2基の神輿によって競われる先着争いの激しさから、古くから奥州（東北）の三大荒祭りと呼ばれている。また、様々な役割が、1300年前に神様をお迎えした者達の子孫らにより連綿と受け継がれている貴重さから国の重要無形民俗文化財にも指定されている。,38.93954636,141.4457519,/images/spots/Ichinoseki_Activity_Muronetaisai.jpg,4,33,"https://muronetaisai.com/ , https://www.city.ichinoseki.iwate.jp/index.cfm/6,3141,107,html"
333,松澤神社例大祭,ひな人形やつるし飾りなどのひな飾りが、大正ロマン漂う千厩酒のくら交流施設を中心に千厩商店街に飾り付けられ、町は華やかな雰囲気に包まれる。スタンプラリーやマルシェ、高校生の演奏会、松澤神社の三十三段雛、シャトル馬車の運行などたくさんのイベントも開催される。ひと足早い春の訪れを感じてみては？,38.92056133,141.3385509,/images/spots/Ichinoseki_Activity_MatsuzawaShinjaTaisai.jpg,4,33,http://www.ganshinsei.jp/ichinosekishi/539a.html
334,全国地ビールフェスティバルin一関,全国から集められた地ビールを求め、全国各地からビールファンが集結する岩手県一関市の夏の祭典「全国地ビールフェスティバルｉｎ一関」。様々な種類のビールと地場産品を使った料理が訪れた人たちを魅了する。,38.92842341,141.1333832,/images/spots/Ichinoseki_Activity_BeerFestival.jpg,4,33,"https://iwatetabi.jp/events/7919/ , https://www.ichitabi.jp/event/data.php?p=5"
335,藤沢野焼きまつり,「藤沢野焼祭」は1976（昭和51）年、考古学者塩野半十郎氏（故人）が藤沢町を訪れ、古代縄文式野焼きを復元した祭を提唱し、第1回藤沢野焼祭を開催してから、今年47回目を数える藤沢の夏の一大イベント。祭り会場の藤沢運動広場「特設縄文村」には、縄文時代を再現する窯で、数百点の粘土作品を夜通しかけて焼き上げるお祭りだ。,38.86678507,141.3505875,/images/spots/Ichinoseki_Activity_NoyakiMatsuri.jpg,4,33,"https://noyaki.net/ , https://www.ichitabi.jp/event/data.php?p=227"
336,大東大原水かけ祭り,沿道で待ち構えた人達から容赦のない冷水を浴びせかけられながら、「火防祈願」「無病息災」「家内安全」などを祈って勇ましく走り抜ける裸男達。367年前の江戸時代から続く伝統的な祭りで、極寒の2月に行われることから”天下の奇祭”とも呼ばれている。,39.01610148,141.4002697,/images/spots/Ichinoseki_Activity_WaterFestival.jpg,4,33,"https://iwatetabi.jp/events/8445/ , https://www.ichitabi.jp/event/data.php?p=156"
337,一関・平泉バルーンフェスティバル,色とりどりの気球が空を飛ぶこのフェスティバルでは、国内最高峰の熱気球競技大会である「熱気球ホンダグランプリ」などのイベントも開催され、熱気球の大きさ・景色は圧巻である。ほかにも一関には1年を通して、市内各地での熱気球係留体験搭乗会が行われ、長いロープでつながれた熱気球に乗り、上空から約20mの高さを体験することができる。バーナーの熱気を身近に感じながら、いつもは見られない景色を堪能しよう。,38.93456349,141.1595865,/images/spots/Ichinoseki_Activity_BaroonFestival.jpg,4,33,https://iwatetabi.jp/events/9031/
338,骨寺村荘園米納め,一関市厳美地区はかつて「骨寺村」と呼ばれた中尊寺の荘園で、現代でも美しい日本の伝統的な農村風景が残っている。毎年、骨寺村荘園内の水田で収穫された新米を平泉町の中尊寺まで奉納する儀式が行われている。,38.97251085,140.9595025,/images/spots/Ichinoseki_Activity_HonederaShoenKomeosame.jpg,4,33,"https://iwatetabi.jp/events/70564/ , https://www.honedera.jp/index.html"
339,道の駅・かわさき,国道284号沿いにある県内屈指の利用客数を誇る道の駅。特徴は、おこわ、おにぎり、餅、漬物、惣菜などなど地元のお母さんたち自慢の無添加加工食品の出品数が数多いこと。産直では地元で採れたての野菜やいちご・トマトなどの特産品や旬の農産物、手作り豆腐、お土産品が揃っている。,38.89861102,141.2722936,/images/spots/Ichinoseki_Food_MichinoekiKawasaki.jpg,5,33,https://www.thr.mlit.go.jp/iwate/yakudati/michinoeki/26_kawasaki.html
340,餅料理,岩手県の一関・平泉は、伊達藩から伝わったもち食文化が受け継がれている地域。季節の行事や人生の節目など、ハレの日にはもちが食べられてきた。また、もちに関する儀礼や言い伝えも多く残されている。この食文化は、ユネスコ無形文化遺産に登録された「和食」のひとつに認定。さらに農林水産省が認定する「食と農の景勝地」にも、全国で初めて選ばれた。,38.93770921,141.1308351,/images/spots/Ichinoseki_Food_Mochi.jpg,5,33,http://sekinoichi.co.jp/cuisine/
341,かっこうだんご,厳美渓の名物といえば郭公屋の「郭公だんご」。店は渓流をはさんだ対岸にあり、そこに張られたロープに下がる籠に代金を入れて木槌で板をたたくと、籠は引き上げられて代わりに注文しただんごとお茶が入って降りてくる。籠の中のお茶もこぼれず手元に届くというのは長年の経験によるものといえるだろう。,38.94435228,141.047375,/images/spots/Ichinoseki_Food_KakkoDango.jpg,5,33,"https://www.ichitabi.jp/gourmet/data.php?p=13 , https://iwatetabi.jp/spots/6882/"
342,一関あんかけカツ丼,岩手県一関市千厩町にある小角食堂（こっかどしょくどう）の“あんかけかつ丼”。 創業は大正14年の老舗。最初は普通の卵を使ったかつ丼を提供していたようですが、ご飯にタレが染みるのを嫌って「あんかけかつ丼」を考案したとの事。ご飯の上にキャベツの千切りが乗っていて、その上にサクサクでジューシーなカツが乗り、甘酸っぱいソース味のあんがかけてある。このあんは、カツオ節とサバ節で取ったダシを中農ソースや醤油、砂糖などで味付けられている。,38.91878197,141.3338293,/images/spots/Ichinoseki_Food_AnkakeKatsudon.jpg,5,33,"https://www.ichitabi.jp/gourmet/data.php?p=53 , https://sakenokura.com/wp/kokado/"
343,かにばっと,餅と同等に地域の伝統食として小麦粉に水を加えて練り生地を薄くのばして茹でた「はっと汁」と共に、地域を流れる北上川で捕れたモクズガニから出汁をとり、はっとと旬の野菜を煮込んだ「カニばっと」は各家庭のおふくろの味だ,38.90085667,141.2793333,/images/spots/Ichinoseki_Food_Kanibatto.jpg,5,33,"https://iwatetabi.jp/spots/70049/ , http://www.bunka.pref.iwate.jp/archive/food39"
344,大野キャンパス,一日中楽しめるおおのキャンパス 広大な敷地に作られた14の施設群。「食べて」「遊べて」「体験できて」「泊まれる」場所 。そこは、かつて村の人々が夢と希望と共に集まり、工芸の伝統と技を磨いた場所。,40.27725836,141.6654823,/images/spots/Hirono_Activity_OnoCanpus.jpg,4,1,https://ohnocampus.jp/
345,ホヤ料理,洋野町は、伝統的な潜水技術「南部もぐり」によって、質の高い天然ホヤが水揚げされる地域。トゲがしっかりとしたホヤが育ち、味わいも豊か。地元の食事処では、ほやしゃぶのほか、ほや刺しやほやフライなど、多彩なホヤ料理を楽しむことができる,40.406817,141.719001,/images/spots/Hirono_Food_Hoya.jpg,5,1,http://www.uninosato-hamanasutei.com/
346,ハートフル・スポーツランド,子どももおとなもスポーツや散策が楽しめる総合運動公園。町営パークゴルフ場やナイター施設の整った野球場、天然芝の陸上競技場がある。5月中旬頃から「芝桜のお花見スポット」としても賑わうパークゴルフ場は、起伏に富んだ4コース36ホール。用具のレンタルもあるので、ファミリーや友だち同士で気軽に楽しめる。,40.311949,141.460993,/images/spots/Karumai_Nature_HeartfulPark.jpg,1,2,https://www.town.karumai.iwate.jp/article/kurashitetsuduki/facility/sport/entry-basename-5.html
347,フォレストパーク,花と緑のまち・軽米を代表する施設といえば「雪谷川ダムフォリストパーク・軽米」。約15万本が咲き誇るチューリップの楽園と称される自然森林公園だ。4月下旬から5月中旬にかけて春を彩るチューリップの開花期に合わせて「森と水とチューリップフェスティバル」を開催している。7月中旬からはしっとりとアジサイが迎える夏のキャンプシーズン、そして紅葉から深まりゆく晩秋まで楽しめる。森とダム湖が織りなす景観美に身をおき、移ろう季節を感じながら自然散策をしよう。,40.28835,141.516375,/images/spots/Karumai_Nature_ForestPark.jpg,1,2,https://www.karumai-kanko.jp/kanko_data/yukiyagawadam-forest-park-karumai
348,久慈渓流,久慈平庭県立自然公園に指定されている自然豊かな観光スポット。春は新緑、秋は紅葉は見ごたえ十分で人々の憩いの場となっている。「鏡岩」のそばには岩手の名水20選にも選ばれた名水「不老泉」があり、飲用すると持病が治り不老長寿になるという言い伝えがある。,40.176846,141.642241,/images/spots/Kuji_Nature_KujiKeryu.jpg,1,3,https://iwatetabi.jp/spots/5219/
349,久慈琥珀博物館,久慈地方は、国内最大の琥珀産地として知られている。久慈琥珀博物館は、古くから琥珀採掘の行われた土地でもある久慈市郊外に所在し、国内では唯一の琥珀専門博物館となる。,40.169922,141.723758,/images/spots/Kuji_History_AmberMuseum.jpg,2,3,https://www.kuji.co.jp/
350,久慈秋祭り,大神宮、秋葉神社、巽山神社の三社合同で行われる祭で、600年余の歴史を誇る。初日の「お通り」と最終日の「お還り」には市内目抜き通りを山車や神輿が練り歩く。中日には郷土芸能パレードも行われるなど見どころも豊富で多くの見物客で賑わう,40.19196366,141.7583594,/images/spots/Kuji_Activity_KujiAkimatsuri.jpg,4,3,"https://iwatetabi.jp/events/7624/ , https://www.city.kuji.lg.jp/soshiki/shokokanko/1/1/4/2413.html"
351,コロポックルランド,村民と都市住民との交流を目的に作られた、折爪岳のふもとにできた施設。キャンプ場、とんがり屋根のツリーハウスや野外炊事施設もあり、アウトドアに最適です。入浴施設も備えていて、ゆっくりくつろげる。,40.25964828,141.3922686,/images/spots/Kunohe_Activity_KoropokkuruLand.jpg,4,4,https://www.vill.kunohe.iwate.jp/docs/214.html
352,道の駅おりつめ,道の駅「おりつめ」は、八戸自動車道九戸ICから久慈市に至る主要地方道沿線にあり、折爪岳を眺望できる休憩スポットとして人気がある。一番賑わう産直施設オドデ館は、甘茶や山ぶんどうジュースなど九戸村の特産品や、木工品、お総菜やお弁当も好評です。村の食自慢のお母さんたちの手作りの漬物など、季節ごとに楽しみがある。,40.24912248,141.4169286,/images/spots/Kunohe_Activity_MichinoEkiOritsume.jpg,4,4,https://www.vill.kunohe.iwate.jp/docs/206.html
353,へっちょこ団子と雑穀,たかきび粉、もちあわ粉、いなきび粉をそれぞれ丸めて中央をへこませただんごを、煮立った小豆汁に入れた雑穀料理。語源は、人間のへそに似ていることと、1年間農作業で「へっちょ（苦労）」したことをねぎらう意味で付けられたといわれている。,40.2687388,141.2942969,/images/spots/Ninohe_Food_HettyokoDango.jpg,5,5,https://www.pref.iwate.jp/kenpoku/nino_noukai/shokubunka/1014985.html
354,天台の湯,天台寺名誉住職・瀬戸内寂聴師が命名した、天台の湯。霊峰稲庭岳の原生林から湧き出す、「岩誦坊の水」を使用した入浴・宿泊施設。温泉はミネラルをバランスよく含む弱アルカリ性のお湯でゆっくり寛ぐことができる,40.19840097,141.0906598,/images/spots/Ninohe_Resort_TendainoYu.jpg,3,5,https://tendainoyu.co.jp/
355,天台寺,みちのくの霊山・八葉山天台寺の開山は、奈良時代の神亀5年（728）。東北の仏教文化の中心地として、歴史を刻む東北屈指の古刹。国指定重要文化財のご本尊・聖観音立像のほか、宝物庫には歴史をくぐり抜けた仏像が並んでいる。春と秋の例大祭は、神輿や神楽が奉納され、賑わう,40.198338,141.187134,/images/spots/Ninohe_History_TendaiJi.jpg,2,5,https://tendaiji.or.jp/
356,奥中山高原温泉,奥中山高原温泉は「朝朱の湯（あさあけのゆ）」「煌星の湯（きらぼしのゆ）」の2つの温泉を楽しむことができる温泉リゾート。館内にはサウナや水風呂、露天風呂、電気風呂等とことん温泉を楽しみたい方に最適な施設が充実。,40.08365047,141.1914798,/images/spots/Ichinohe_Resort_OkunakayamaKogenOnsen.jpg,3,6,https://www.okunakayamakogen.jp/hotspring/
357,御所の城門公演,縄文時代中期の集落跡にある遺跡公園。園内には、復元された竪穴住居や掘立柱建物などがあり、実際の配石遺構をご覧いただける。そのほか、縄文時代を彷彿とさせる縄文の森もあり、多くの木々に囲まれた自然の散策路としても楽しめる公園。また、博物館や体験施設があり、歴史や文化を学び体験することができます。園内での飲食が可能なため、家族連れでお弁当持参で楽しむこともできる,40.19738873,141.3092475,/images/spots/Ichinohe_History_JomonPark.jpg,2,6,https://goshono-iseki.com/index.html
358,道の駅のだ,「塩の道」としても栄えた陸中海岸の野田村に、三陸鉄道の陸中野田駅と観光物産館がドッキングした「道の駅」のだ。地元農産物が揃う「産直ぱあぷる」は賑わいを見せている。,40.116091,141.818096,/images/spots/Noda_Food_MichinoekiNoda.jpg,5,7,http://nodaeki.com/bussan/
359,野田塩づくり体験えぼし荘,伝統的な直煮じきに製法で作られる「のだ塩」。現代でも7日間かけて製塩しているが、この体験では濃縮海水、フライパンとしゃもじを使ったプチ直煮製塩法（約40分）で、”マイのだ塩”をお持ち帰れる,40.058888,141.846629,/images/spots/Noda_Activity_SoltMakeEboshiSo.jpg,4,7,https://www.noda-kanko.com/kankou/taiken/nodashiodukuri.html
360,鵜鳥神社例大祭 鵜鳥神楽,沿岸に初夏の訪れを告げる鵜鳥（うのとり）神社の例大祭は旧暦の4月8日(5月中旬)に行われる。縁結び、安産のほか海上安全、大漁の神として信仰を集めている神社だけに、当日は地元下閉伊地域はもちろんこと、北は八戸、南は釜石周辺の漁業関係者も参集。多くの人々が新緑まぶしい卯子酉山山頂にある本殿（奥宮）を詣で海上安全と豊漁を祈願する。,40.00958774,141.8522566,/images/spots/Hudai_History_UnotoriKagura.jpg,2,8,https://www.vill.fudai.iwate.jp/kanko/sightseeing/event-unotori-jinjya.html
361,北緯40度の地球村,普代を代表する景勝地である黒崎展望台。遠くは久慈市の久喜海岸から野田村の海岸線を一望でき、ところによっては150メートルを超える勇壮な断崖を眺められ、展望台近くには北緯40度00分00秒東端ポイントがあり、それを表したモニュメントが存在している。,40.00679791,141.9346285,/images/spots/Hudai_History_UnotoriKagura.jpg,2,8,https://www.vill.fudai.iwate.jp/kanko/experience/kurosaki-meguri.html
362,北山崎,高さ200mの断崖に、奇岩怪石、大小さまざまな海蝕洞窟と、ダイナミックな海岸線が約8㎞にもわたり続く。自然の息吹を感じる春、ときにやませにかすむ夏の海、紅葉の美しい秋、そして墨絵のような雪景色。いつ見ても魅力あふれる北山崎は、（公財）日本交通公社の全国観光資源評価「自然資源 海岸・岬の部」で最高ランクの特Ａ級に格付けされた景勝地である,39.97951762,141.9569404,/images/spots/Tanohata_Nature_Kitayamazaki.jpg,1,9,https://www.vill.tanohata.iwate.jp/kankou/see/index-kitayamazaki.html
363,ホテル羅賀壮,三陸海岸の大パノラマを背景に、お部屋の窓から紺碧の海が眺められる白亜のリゾートホテル「ホテル羅賀荘」では、眼下に迫る雄大な自然美の展望風呂と田野畑の海の幸を楽しむことができる。,39.9390607,141.939968,/images/spots/Tanohata_Resort_Ragaso.jpg,3,9,https://www.vill.tanohata.iwate.jp/kankou/stay/ragaso.html
364,てどの蔵,「てど」とは岩泉の方言で、手先の技術のこと。てどの蔵は、うれいら通り商店街にある昔ながらの土蔵。昔ながらの生活を見学して現地の文化、風土や人々に触れることができる。機織り、スピンクラフトや陶芸の体験も可能。,39.84703382,141.7910089,/images/spots/Iwaizumi_Activity_TedoNoKura.jpg,4,10,https://www.town.iwaizumi.lg.jp/iwaizumi_blog/archives/5278.html
365,早坂高原,岩泉町の西北部に位置している、早坂高原は県立自然公園に指定されている。雄大な大草原や、レンゲツツジ、シラカバ、シナノキは高山植物の宝庫。春になると可憐なカタクリの花が顔を覗かせる。早坂高原の広葉樹林は世界的にも保護価値が高いと注目され、樹林内の散策路（総延長約4㎞）が癒しの高い「森林セラピーロード」（全国で63ヶ所）として認定されている。,39.84928257,141.5102225,/images/spots/Iwaizumi_Nature_HayasakaKogen.jpg,1,10,https://www.town.iwaizumi.lg.jp/docs/2022020400149/
366,龍泉洞,"龍泉洞は日本三大鍾乳洞の一つとされ、また洞内に棲むコウモリと共に国の天然記念物に指定されている。洞内総延長は知られている所で4,088mで、そのうち700mが公開中。見つかっている地底湖は8つで、そのうち3つが公開中。現在も調査が継続中で未知の部分もまだまだ多く、総延長は5,000m以上ではないかと言われている。悠久の時が生んだ芸術品の様な鍾乳石たち。世界有数の透明度の目の覚めるような青い地底湖。龍泉洞は一度見れば忘れられない感動を味あわせてくれることだろう",39.86026973,141.797005,/images/spots/Iwaizumi_Nature_Ryusendo.jpg,1,10,https://www.iwate-ryusendo.jp/
367,JR山田線,岩手県盛岡市から三陸の宮古市へと向かうJRのローカル線。本来は、宮古市からさらに三陸の海沿いを南下し、山田町、大槌町を経て、釜石へと通じる路線。季節で変わる車窓から見える風景を楽しもう。,39.64080374,141.9466105,/images/spots/Yamada_Nature_YamadaLine.jpg,1,11,https://iwatetabi.jp/feature/794/
368,瓶ドン,岩手県沿岸では獲れたてのウニを牛乳瓶に詰めて保存するスタイルが一般的。獲れたてのウニを、滅菌処理を行った海水と一緒に牛乳瓶に入れ保存することで、地元でしか味わえない新鮮で美味しいウニを食べることができる。この独特のスタイルからヒントを得て、考案されたのが「瓶ドン」だ。,39.65247344,141.9776642,/images/spots/Miyako_Nature_Bindon.jpg,5,11,https://kankou385.jp/special_kiji/4482/
369,浄土ヶ浜,三陸復興国立公園・三陸ジオパークの中心に位置する浄土ヶ浜は、宮古の代表的な景勝地。鋭くとがった白い流紋岩が林立し、一つ一つ違った表情を見せて海岸を彩ります。松の緑と岩肌の白、海の群青とのコントラストはまさに一見の価値あり。 浄土ヶ浜の地名は、天和年間(1681〜1683)に宮古山常安寺七世の霊鏡竜湖(1727年没)が、「さながら極楽浄土のごとし」と感嘆したことから名付けられたと言われている,39.69166758,141.9824552,/images/spots/Miyako_Nature_Jodogahama.jpg,1,11,https://www.city.miyako.iwate.jp/gyosei/soshiki/kanko/4/8/2/1/1154.html
370,青の洞窟,陸中海岸の「青の洞窟」と異名をとる八戸穴は、青森県の八戸市まで続いているという伝説から名づけられていた。昔、この穴に入っていった犬が、数年後八戸市で見つかった為、この穴は八戸まで続いているということになり、八戸穴と呼ばれるようになったとか。,39.64864227,141.9809463,/images/spots/Miyako_Nature_BlueCave.jpg,1,11,http://j-marine.com/sappa/
371,山田祭,町全体が盛り上がる山田町を代表する秋の祭りで、「山田八幡宮例大祭」と「大杉神社例大祭」の2つの祭りを行う。 山田八幡宮例大祭は、源義経の身代わりで討ち死にした佐藤継信の守り神（清水観音）を祀る山田八幡宮の歴史と伝統の祭りで、町中を神輿が勢いよく暴れまわる。,39.46663525,141.9518552,/images/spots/Yamada_History_YamadaMatsuri.jpg,2,12,https://iwatetabi.jp/events/9027/
372,山田湾シーカヤック,穏やかな波と白い砂浜の荒神海岸。南国を思わせるような透明度の海でシーカヤックを体験しよう。,39.44035338,141.9775853,/images/spots/Yamada_Activity_YamadaBay.jpg,4,12,https://www.town.yamada.iwate.jp/docs/2652.html
373,船越半島大釜崎,船越半島の東南に位置し、高さ150mの垂直に切り立った断崖と、大きな岩礁に挟まれた水路があることから”海のクレバス”と呼ばれている。船越半島の中でも、特に雄大な男性的景観が堪能できる名所。,39.41896325,142.0358794,/images/spots/Yamada_Nature_Okamasaki.jpg,1,12,https://www.town.yamada.iwate.jp/docs/133.html
374,オランダ島,"1643年、オランダ船「ブレスケンス号」が食糧と水を補給する為この地に碇を下した事から名づけられた。周囲約900m、面積26,960㎡の東北唯一の無人島の海水浴場。",39.44003508,141.9829878,/images/spots/Yamada_Nature_NetherlandsLand.jpg,1,13,https://www.yamada-kankou.jp/spots/orandajima/
375,臼澤鹿子踊り,元禄年間に房州の船乗りが伝えた踊りがあったらしいといわれ、天明年間に鹿島神宮へ赴いた大槌の村人が房州踊りに出会い、その技芸を習い覚えたのが現在の鹿子踊りといわれている。大槌まつりの小鎚神社祭礼に奉納し、神輿渡御の先祓いとして参列し、お旅所奉納、個人宅への門打ちを行う。,39.3625647,141.8749603,/images/spots/Ozuchi_History_UsuzawaShishiOdori.jpg,2,13,https://sanfes.com/artists/usuzawa-shishiodori
376,釜石ラーメン,お客様をお待たせしないため早く茹で上がるように工夫された極細の縮れ麺と、琥珀色に透き通った醤油味のあっさりスープが特徴の釜石ラーメン。,39.24758725,141.89015,/images/spots/Kamaishi_Food_KamaishiRamen.jpg,5,14,https://kamaishi-kankou.jp/gourmet/kamaishiramen/
377,釜石祭り,古くから伝わる尾崎神社祭典と山神社祭典（釜石製鐵所の守護神社の祭り）が合同となり、昭和42年から「釜石まつり」となった。中日には、尾崎半島にある尾崎神社本宮から船で市内にある里宮にご神体を奉遷する「曳き船まつり」が行われ、お召船を中心に、虎舞や神楽を乗せた十数隻の船が大漁旗をなびかせて釜石港内をパレードをする。最終日は市内目抜き通りを虎舞や神楽、山車、鹿踊のほか両神社の神輿が渡御する。,39.273743,141.892299,/images/spots/Kamaishi_History_KamaishiMatsuri.jpg,2,14,https://iwatetabi.jp/events/7885/
378,釜石大観音,釜石大観音は、様々な天災で亡くなられた方の鎮魂と現世を生きる人々の心願成就を願って建立され、全高48.5メートル12階の白亜のお魚を抱いた魚籃観音像と、お釈迦様のご遺骨をお祀りしている仏舎利塔、不動殿などで構成されている。観音様の胎内には、三十三観音や七福神などを安置され胎内めぐりをすることができる。また、海抜120メートルの魚籃展望台や撮影ポイントとして設定した浄土橋からの眺望は圧巻。,39.25684049,141.9006714,/images/spots/Kamaishi_History_KamaishiDaikannon.jpg,2,14,https://kamaishi-kankou.jp/learn/daikannon/
379,橋野高炉跡,橋野高炉跡は、岩手県釜石市の山中に建設された洋式高炉跡。国の史跡に指定されている橋の高炉跡は、世界遺産「明治日本の産業革命遺産 製鉄・製鋼、造船、石炭産業」の構成資産となっている。水戸藩に大砲用の銑鉄を供給するために南部藩によって建設された。,39.34407503,141.6822352,/images/spots/Kamaishi_History_HashinoKouro.jpg,2,14,https://kamaishi-kankou.jp/learn/hashinotekkouzan/
380,葉山めがね橋,住田町を流れる気仙川に架かる葉山めがね橋は、昭和6年に架けられたアーチ型のコンクリート橋。義経北行ルートにあたり、「弁慶の足跡」や「半官手掛けの松」などの伝説が残されている。周囲は葉山めがね橋水公園として、自然鑑賞ができるよう整備されている。,39.19464073,141.5833548,/images/spots/Sumita_History_HayamaMeganeBashi.jpg,2,15,https://iwatetabi.jp/spots/68412/
381,滝観洞,「滝観洞」の最大の特徴は、東北最大級 全長880mの洞内を最深部まで進んだ先にある、周囲50m、高さ60mのドーム状に広がる神秘の空間。天井の大理石の裂け目から流れ落ちる落差29m（国内最大級の洞窟内滝）の「天の岩戸の滝」が、轟音とともに現れる様は圧巻。,39.24318519,141.6839696,/images/spots/Sumita_Nature_RokanCave.jpg,1,15,https://rokando.jp/
382,五葉山火縄銃鉄砲隊,霊峰・五葉山。藩政時代、ここから産出されたヒノキは火縄の原料となり、巨大鉄砲藩と恐れられた奥州伊達藩を支えた。当時藩に献上された火縄は年間約21キロメートルにものぼり、これが約100年間も続いたとされている。このような歴史的背景から、住田町五葉地区では平成3年に「五葉山火縄銃鉄砲隊伝承会」を結成。地元産出のヒノキによる火縄を使った、日本で唯一の鉄砲隊が誕生した。,39.24318519,141.6839696,/images/spots/Sumita_History_GunMan.jpg,2,15,https://iwatetabi.jp/edu_travel/16049/
383,碁石海岸・穴通磯,大船渡の名所。西側に急傾斜した大船渡層群飛定地層からなり、３つの穴が開いている、碁石海岸を代表する奇岩。地層と地層が重なる境界面や割れ目はほかの部分より強度が弱いので、波による侵食を受けて崩れたり削られたりして、３つの洞門が形成されたと考えられている。,39.00750955,141.7353348,/images/spots/Ohunato_Nature_GoishiCoaster.jpg,1,16,https://ofunato.jp/Summary/info/21
384,世界の椿館,大船渡市はヤブツバキが生育する太平洋沿岸の北限として知られ、椿の里と呼ばれている。ここ「世界の椿館・碁石」では、世界13カ国約600種類ものツバキを観賞することができる。日本産ツバキのほか、アメリカやフランス、ベトナムなどの外国産ツバキを展示。館内は、日本各地のヤブツバキを集めた「郷土の椿」、葉や枝に特徴のある品種を集めた「変わり三景」、香りのあるものや黄色い椿といった、珍しいものをまとめた「珍椿花」など、9つのセクションに分かれている,38.99086041,141.7411996,/images/spots/Ohunato_Nature_Tsubakikan.jpg,1,16,http://www.sekaino-tsubakikan.jp/
385,大船渡温泉,碁石海岸インターからほど近くにある『大船渡温泉』。目の前に広がる大船渡湾を眺めながら、三陸の旬の幸を使った料理を堪能。部屋で過ごす時間も贅沢な時間に。温泉宿・ホテル総選挙では、絶景部門3年連続全国1位、海の幸部門2年連続全国1位を受賞するなど、全国各地から訪れる人を癒してくれる人気の温泉宿。,39.02949596,141.7138689,/images/spots/Ohunato_Resort_OhunatoOnsen.jpg,3,16,https://oofunato-onsen.com/
386,長安寺,日頃市町に約900年前に建立された浄土真宗大谷派の寺院。東北有数の名刹で京都東本願寺の末寺。当時の建物は火災で焼失し、現在のものは後に再建された建物。その中でも山門は高さおよそ20mの総ケヤキ造り、太鼓堂は約270年前、桃山建築の様式を取り入れて建てられている。,39.10861405,141.6863558,/images/spots/Ohunato_History_HashigoToramai.jpg,2,16,https://choanji.or.jp/
387,梯子虎舞,平組（たいらぐみ）はしご虎舞（とらまい）は、文政年間、将軍家斉の時代に技匠末崎町平の住人、東四郎屋留蔵・川口屋磯五郎の両名が舞振りを付けたのが始まりとされている。3mの縦の小梯子と約20mの横梯子と縦梯子を組み合わせるのが特徴。ケセンには複数のはしご虎舞があるが、横梯子が有るのは平組のみ。,39.27369526,141.871719,/images/spots/Ohunato_History_HashigoToramai.jpg,2,16,http://www.uchinome.jp/event/traditional/tradi18_2.html
388,黒崎仙峡温泉,黒崎仙峡温泉は、のんびりお湯につかりながら、太平洋の雄大な景観も楽しめるくつろぎスポット。三陸復興国立公園のふところに抱かれて温泉を満喫した後は、遊歩道の散策や海の大パノラマを楽しもう。,38.95243937,141.7231553,/images/spots/Rikuzentakata_Resort_KurosakiSenkyoOnsen.jpg,3,17,https://kurosaki-onsen.com/index.php
389,椿島,広田半島の先端、岩手県最南端の美しい島々が青松島と椿島。ウミネコの繁殖地として有名で、４～７月頃には隊群のウミネコが集まる。椿島は、かつて１面に椿の群落が見られたが、ウミネコの繁殖で今は枯れて裸島。青松島は県の名勝・天然記念物、椿島は国の天然記念物に指定されている。,38.93596516,141.7168154,/images/spots/Rikuzentakata_Nature_TsubakiLand.jpg,1,17,https://www.city.rikuzentakata.iwate.jp/soshiki/kyouikusoumuka/bunkazaigakari/1/1/2/2652.html
390,奇跡の一本松,気仙川の河口から広田湾に沿って続く弓形の砂浜で、かつては陸中海岸を代表する海水浴場であったが、東日本大震災により大きく被害を受けた。樹齢300年を越える数万本のアカマツやクロマツの林が2kmにわたって植樹されていたが、跡形もなく流されてしまった。奇跡的に残った一本松は復興のシンボルとなっており、後世に受け継ぐためモニュメントとして保存されている。,39.00357339,141.6251237,/images/spots/Rikuzentakata_History_Ipponmatsu.jpg,2,17,https://iwatetabi.jp/spots/5347/
